,"﻿""sno""",sna,tot,sbi,sarea,mday,lat,lng,ar,sareaen,snaen,aren,bemp,act
0,500201001,YouBike2.0_下庄市場,16,1,八里區,20231118113914,25.14678,121.3999,舊城路21號(前),Bali Dist,YouBike2.0_Shia Juang Market,"No.21, Jiucheng Rd., Bali Dist",15,1
1,500201002,YouBike2.0_八里行政中心,16,2,八里區,20231118113914,25.15397,121.40721,十三行路(靠中山路二段路口西南側人行道),Bali Dist,YouBike2.0_Bali District Center,Shisanhang Rd. & Zhongshan Rd. Intersection (Southwest),14,1
2,500201003,YouBike2.0_八里中庄市場綜合大樓,28,1,八里區,20231118113914,25.15993,121.41407,中山路一段268巷2號(對面汽車停車場),Bali Dist,YouBike2.0_Bali Chung Chuang Market Multi-Purpose Building,"No. 2, Ln. 268, Sec. 1, Zhongshan Rd., Bali Dist.",27,1
3,500201004,YouBike2.0_大崁國小,16,1,八里區,20231118113914,25.16064,121.41938,忠八街2號(前),Bali Dist,YouBike2.0_DaKan Elementary School,"No. 2, Zhong 8th St., Bali Dist.",15,1
4,500201005,YouBike2.0_龍米停車場,32,4,八里區,20231118113914,25.15678,121.43604,龍米路二段150號(旁),Bali Dist,YouBike2.0_Longmi Parking Lot,"No. 150, Sec. 2, Longmi Rd.",28,1
5,500201006,YouBike2.0_龍形停車場,20,5,八里區,20231118113914,25.13041,121.4513,龍米路一段318號(對面停車場),Bali Dist,YouBike2.0_Long Xing Parking Tower,"No. 318, Sec 1, Longmi Rd.(Opposite)",15,1
6,500201007,YouBike2.0_十三行博物館,32,10,八里區,20231118113914,25.157,121.406,博物館路183號(對面),Bali Dist,YouBike2.0_Shihsanhang Museum of Archaeology,"No. 183, Museum Rd., Bali Dist.(opposite)",22,1
7,500201008,YouBike2.0_八里區民活動中心,14,14,八里區,20231118113914,25.14933,121.40126,中山路二段356巷12號(旁),Bali Dist,YouBike2.0_Bali Activity Center,"No. 12, Ln. 356, Sec. 2, Zhongshan Rd.",0,1
8,500201009,YouBike2.0_挖仔尾自然生態保留區,15,0,八里區,20231118113914,25.16419,121.41586,博物館路/挖仔尾街口(西側),Bali Dist,YouBike2.0_Waziwei Ecological Reserves,Museum Rd. & Waziwei St. Intersection(West),15,1
9,500201010,YouBike2.0_文昌公園,15,5,八里區,20231118113914,25.15709,121.41033,中山路二段/文昌路(東側),Bali Dist,YouBike2.0_Wenchang Park,"Sec. 2, Zhongshan Rd. & Wenchang Rd.(East)",10,1
10,500201011,YouBike2.0_八里國小,15,3,八里區,20231118113914,25.14896,121.4026,中山路二段251號(對面),Bali Dist,YouBike2.0_Bali Elementary School,"No. 251, Sec. 2, Zhongshan Rd.(Opposite)",12,1
11,500201012,YouBike2.0_八里文化公園(棒球場),30,1,八里區,20231118113914,25.16359,121.41251,忠孝路與挖仔街口(棒球場公園入口),Bali Dist,YouBike2.0_Bali Wenhua Park,Zhongxiao & Waziwei street entrance (baseball park),29,1
12,500201013,YouBike2.0_水興公,15,2,八里區,20231118113914,25.16208,121.42509,觀海大道/忠四街(北側),Bali Dist,YouBike2.0_Shuixinggong,Guanhai Blvd. & Zhong 4th St. (North west),13,1
13,500201014,YouBike2.0_片仔溝公園,20,4,八里區,20231118113914,25.15020,121.40581,中華路二段210號旁,Bali Dist,YouBike2.0_Pianzaigou Park,"No. 210, Sec. 2, Zhonghua Rd. (Side)",16,1
14,500201015,YouBike2.0_八里福朋喜來登酒店,18,1,八里區,20231118113914,25.15922,121.42945,觀海大道8號,Bali Dist,YouBike2.0_Four Points by Sheraton Taipei Bali,"No. 8, Guanhai Blvd.",17,1
15,500201016,YouBike2.0_訊塘社區公園,13,2,八里區,20231118113914,25.14550,121.39609,商港路/中山路二段口(東北側),Bali Dist,YouBike2.0_Xuntang Community Park,"Shanggang Rd. & Sec. 2, Zhongshan Rd. (Northeast)",9,1
16,500201017,YouBike2.0_商港公園(商港八商港一路口),15,7,八里區,20231118113914,25.15039,121.40026,商港八路/商港一路口,Bali Dist,YouBike2.0_Bali ShangGang Park (Shanggang 8th Rd. Intersection),Shanggang 8th Rd. & Shanggang 1st Rd. Intersection,8,1
17,500201018,YouBike2.0_商港公園(商港七商港一路口),15,1,八里區,20231118113914,25.14916,121.39841,商港七路/商港一路口,Bali Dist,YouBike2.0_Bali ShangGang Park (Shanggang 7th Rd. Intersection),Shanggang 7th Rd. & Shanggang 1st Rd. Intersection,14,1
18,500202001,YouBike2.0_淺水灣,48,10,三芝區,20231118113914,25.25232,121.47131,北勢子42-11號西側,Sanzhi Dist,YouBike2.0_Qianshui Bay,"No. 42-11, Beishizi, Sanzhi Dist.(opposite)",38,1
19,500202002,YouBike2.0_三芝國中,14,6,三芝區,20231118113914,25.25898,121.50182,淡金路一段38號,Sanzhi Dist,YouBike2.0_Sanzhi Junior High School,"No. 38, Sec. 1, Danjin Rd.",8,1
20,500202003,YouBike2.0_櫻花水車公園,15,0,三芝區,20231118113914,25.25119,121.50125,埔頭里埔頭11-5號南側,Sanzhi Dist,YouBike2.0_Yinghua Park,"No. 11-5, Putou, Putou Village(South)",15,1
21,500202004,YouBike2.0_三芝兒一公園,15,0,三芝區,20231118113914,25.25719,121.4994,長安街79號西側,Sanzhi Dist,YouBike2.0_Sanzhi Children Park (No.1),"No. 79, Chang'an St.(West)",15,1
22,500203001,YouBike2.0_重新重安街口,23,13,三重區,20231118113914,25.05844,121.48975,重安街1號(旁),Sanchong Dist,YouBike2.0_Chongxin Rd. & Zhongan St. Intersection,"No. 1, Zhongan St.",10,1
23,500203002,YouBike2.0_三重高中,36,0,三重區,20231118113914,25.05478,121.49171,集美街225號(對面),Sanchong Dist,YouBike2.0_Sanchong High School,"No. 225, Jimei St.(opposite)",36,1
24,500203003,YouBike2.0_三重國民運動中心,64,28,三重區,20231118113914,25.05439,121.48849,集美街55號(對面),Sanchong Dist,YouBike2.0_Sanchong Civil Sports Center,"No. 55, Jimei St.(opposite)",36,1
25,500203004,YouBike2.0_捷運三重站(1號出口),36,12,三重區,20231118113914,25.05464,121.48322,捷運路36號(旁),Sanchong Dist,YouBike2.0_MRT Sanchong Sta. (Exit 1),"No. 36, Jieyun Rd.",23,1
26,500203005,YouBike2.0_中興橋(環河南路254巷口),21,2,三重區,20231118113914,25.05052,121.49138,環河南路253號(對面),Sanchong Dist,"YouBike2.0_Zhongxing Bridge (Ln. 254, Huanhe S. Rd.)","No. 253, Huanhe S. Rd.(opposite)",19,1
27,500203006,YouBike2.0_疏洪東竹圍仔街口,16,6,三重區,20231118113914,25.04861,121.4864,疏洪東路一段38號(前),Sanchong Dist,YouBike2.0_Shuhong E. Rd. & Zhuweizi St. Intersection,"No. 38, Sec. 1, Shuhong E. Rd.",10,1
28,500203007,YouBike2.0_環河福德南路口,23,10,三重區,20231118113914,25.06029,121.50217,福德南路71號(對面),Sanchong Dist,YouBike2.0_Huanhe Rd. & Fude Rd. Intersection,"No. 71, Fude S. Rd.(opposite)",13,1
29,500203008,YouBike2.0_光興國小,24,17,三重區,20231118113914,25.06027,121.49978,光興街23號(對面),Sanchong Dist,YouBike2.0_Guangxing Elementary School,"No. 23, Guangxing st.(opposite)",6,1
30,500203009,YouBike2.0_三光國小(金滿意),33,14,三重區,20231118113914,25.05596,121.49687,大同南路157號(前),Sanchong Dist,YouBike2.0_Sanguang Elementary School (Jin manyì),"No. 157, Datong S. Rd.",18,1
31,500203010,YouBike2.0_聯邦公園,49,11,三重區,20231118113914,25.06445,121.48371,三民路/中華路口(東南側),Sanchong Dist,YouBike2.0_Lianbang Park,Sanmin Rd. & Zhonghua Rd. Intersection (Southeast),38,1
32,500203011,YouBike2.0_興華公園,21,5,三重區,20231118113914,25.06013,121.4831,中華路5號(前),Sanchong Dist,YouBike2.0_Xinghua Park,"No. 5, Zhonghua Rd.",16,1
33,500203012,YouBike2.0_文中小停車場,39,18,三重區,20231118113914,25.05899,121.48255,名源街54號(對面),Sanchong Dist,YouBike2.0_Wenzhongxiao Parking Lot,"No. 54, Mingyuan St.",21,1
34,500203013,YouBike2.0_三重行政中心,32,4,三重區,20231118113914,25.06057,121.48823,新北大道一段5巷2弄/過圳街31巷(西南側),Sanchong Dist,YouBike2.0_Sanchong District Admin. Center,"Aly. 2, Ln. 5, Sec. 1, New Taipei Blvd. & Ln. 31, Guozhen St. Intersection (Southwest)",28,1
35,500203014,YouBike2.0_捷運菜寮站(3號出口),33,18,三重區,20231118113914,25.06047,121.4922,重新路三段67號(旁),Sanchong Dist,YouBike2.0_MRT Cailiao Sta. (Exit 3),"No. 67, Sec. 3, Chongxin Rd.",15,1
36,500203015,YouBike2.0_三重綜合體育館,47,12,三重區,20231118113914,25.06145,121.49193,中正北路/中正北路25巷(南側),Sanchong Dist,YouBike2.0_Sanchong Sports Center,"Zhongzheng N. Rd. & Ln. 25, Zhongzheng N. Rd. (South)",35,1
37,500203016,YouBike2.0_三重商工(後竹圍街),20,4,三重區,20231118113914,25.07031,121.47976,中正北路165巷53號(後竹圍街路側停車格),Sanchong Dist,YouBike2.0_SanChung Commercial and Indus (Houzhuwei St.),"No. 53, Ln. 165, Zhongzheng N. Rd. (Houzhuwei St.)",16,1
38,500203017,YouBike2.0_力行大勇街口,28,4,三重區,20231118113914,25.07193,121.48151,力行路一段188巷/國道路一段70巷(東南側),Sanchong Dist,YouBike2.0_Lixing & Tayung Intersection,"Ln. 188, Sec. 1, Lixing Rd./Ln. 70, Sec. 1, Guodao Rd. Intersection",24,1
39,500203018,YouBike2.0_後竹圍市民活動中心,34,5,三重區,20231118113914,25.07246,121.48576,後竹圍街175巷22號(對面),Sanchong Dist,YouBike2.0_Houzhuwei Civil Activity Center,"No. 22, Ln. 175, Houzhuwei St., Sanchong Dist.(opposite)",29,1
40,500203019,YouBike2.0_和平公園,12,1,三重區,20231118113914,25.07088,121.48571,忠孝路二段2-1號(旁),Sanchong Dist,YouBike2.0_Helping Park,"No.2, Sec. 2, Zhongxiao Rd.",11,1
41,500203020,YouBike2.0_六合公園,37,15,三重區,20231118113914,25.0695,121.48759,自強路二段74巷91號(對面),Sanchong Dist,YouBike2.0_Liuhe Park,"No.91, Ln. 74, Sec. 2, Ziqiang Rd. (opposite)",21,1
42,500203021,YouBike2.0_三張公園,38,8,三重區,20231118113914,25.07051,121.49094,自強路二段47巷57號(對面),Sanchong Dist,YouBike2.0_Sanzhang Park,"No. 57, Ln. 47, Sec. 2, Ziqiang Rd. (opposite)",30,1
43,500203022,YouBike2.0_厚德公園,36,6,三重區,20231118113914,25.07199,121.4912,忠孝路一段37號(前),Sanchong Dist,YouBike2.0_Houde Park,"No.37, Sec. 1, Zhongxiao Rd.",30,1
44,500203023,YouBike2.0_修德國小,28,14,三重區,20231118113914,25.0653,121.49045,重陽路三段3號(民生街側),Sanchong Dist,YouBike2.0_Sioude Elementary School,"No. 3, Sec. 3, Chongxin Rd.",13,1
45,500203024,YouBike2.0_明志國中,52,5,三重區,20231118113914,25.06340,121.48898,中正北路107號(旁),Sanchong Dist,YouBike2.0_Mingzhi Junior High School,"No.107, Zhongzheng S. Rd.",47,1
46,500203025,YouBike2.0_龍門龍濱路口,26,10,三重區,20231118113914,25.07348,121.50098,龍濱路196號(對面),Sanchong Dist,YouBike2.0_Longmen & Longbin Intersection,"No.196, Longmen Rd. (Oppsite)",16,1
47,500203026,YouBike2.0_三德公園,33,6,三重區,20231118113914,25.07521510241447,121.5011703780708,龍門路274巷35號(對面),Sanchong Dist,YouBike2.0_Sante Park,"No.35, Ln. 274, Longmen Rd. (opposite)",27,1
48,500203027,YouBike2.0_開元市民活動中心,32,0,三重區,20231118113914,25.06607,121.50356,開元街58號/長元街65巷16弄對面,Sanchong Dist,YouBike2.0_Kaiyuan Civic Activity Center,"No.58, Kaiyuan St./Aly. 16, Ln. 65, Changyuan St. (opposite)",32,1
49,500203028,YouBike2.0_信義公園,16,11,三重區,20231118113914,25.0648,121.49875,信義西街18號對面人行道,Sanchong Dist,YouBike2.0_Xinyi Park,"No.18, Xinyi W. St. (opposite)",5,1
50,500203029,YouBike2.0_集成成功路口,19,2,三重區,20231118113914,25.05154,121.48821,集成路2號至8號前人行道,Sanchong Dist,YouBike2.0_Ji Cheng Cheng Gong Intersection,"No.2 to No.8, Jicheng Rd.",17,1
51,500203030,YouBike2.0_翔譽雙子星,28,7,三重區,20231118113914,25.05364,121.49292,三重區中正南路251號(右側人行道),Sanchong Dist,YouBike2.0_Xiang Yu Twin Towers,"No.251, Zhongzheng S. Rd., Sanchong Dist",21,1
52,500203031,YouBike2.0_穀保家商,28,20,三重區,20231118113914,25.0681,121.47103,疏洪東路三段/中正北路560巷口,Sanchong Dist,YouBike2.0_Ku Pao Home Economics & Commercial High School,"Sec. 4,Shuhong WRd., Sanchong Dist./Ln. 560, Zhongzheng N. Rd.",8,1
53,500203032,YouBike2.0_正義公園,42,0,三重區,20231118113914,25.06855,121.49782,文化北路101號至119號對面,Sanchong Dist,YouBike2.0_Zhengyi Park,"No.101 to No. 119, Wenhua N. Rd. (opposite)",42,0
54,500203033,YouBike2.0_大智公園,16,9,三重區,20231118113914,25.06361,121.49445,大同北路56號(對面),Sanchong Dist,YouBike2.0_Dazhi Park,"No.56, Datong N. Rd., Sanchong Dist.",7,1
55,500203034,YouBike2.0_捷運三重國小站,38,20,三重區,20231118113914,25.07042,121.49713,仁愛街/三和路3段11巷,Sanchong Dist,YouBike2.0_MRT Sanchong Elementary School Sta.,"Ren’ai St./Ln. 11, Sec. 3, Sanhe Rd.",10,1
56,500203035,YouBike2.0_碧華公園,24,0,三重區,20231118113914,25.08374,121.48749,溪尾街303號(對面公園),Sanchong Dist,YouBike2.0_Bihua Park,"No.303, Xiwei St. (opposite)",24,1
57,500203036,YouBike2.0_三重永豐公園,17,3,三重區,20231118113914,25.07463,121.47816,永福街197巷6之1號,Sanchong Dist,YouBike2.0_San chong Yongfeng Park,"No.6-1, Ln. 197, Yongfu St.",14,1
58,500203037,YouBike2.0_先嗇宮,16,9,三重區,20231118113914,25.05119,121.47601,五谷王北街77號(後方停車場旁人行道),Sanchong Dist,YouBike2.0_Xianse Temple,"No.77, Wuguwang N. St.",7,1
59,500203038,YouBike2.0_中興北街42巷17弄,20,9,三重區,20231118113914,25.05006,121.46892,中興北街42巷17弄8號旁,Sanchong Dist,YouBike2.0_Zhongxing N. St. 175 Ln,"No.10, Ln. 175,Zhongxing N. St., Sanchong Dist.",11,1
60,500203039,YouBike2.0_慈愛公園,13,3,三重區,20231118113914,25.08119,121.48461,仁愛街584號旁公園人行道,Sanchong Dist,YouBike2.0_Ci'ai Park,"No. 584, Ren’ai St., Sanchong Dist",10,1
61,500203040,YouBike2.0_進安公園,20,15,三重區,20231118113914,25.08603,121.49377,仁義街258號至290號,Sanchong Dist,YouBike2.0_Jinan Park,"No.258 to No.290, Renyi St.",5,1
62,500203041,YouBike2.0_三重五常公園,28,20,三重區,20231118113914,25.08065,121.49615,五華街7巷59號(旁),Sanchong Dist,YouBike2.0_Sanchong Wuchang Park,"Ln. 7, Wuhua St., Sanchong Dist",8,1
63,500203042,YouBike2.0_五福里(五華街),52,0,三重區,20231118113914,25.08173,121.4939,五華街66號(對面),Sanchong Dist,YouBike2.0_Wufu Village (Wuhua St.),"No.64, Wuhua St. (opposite)",52,0
64,500203043,YouBike2.0_碧華公園(集勇街),32,14,三重區,20231118113914,25.08415,121.48554,仁安街2號(對面),Sanchong Dist,YouBike2.0_Bihua Park(Jiyong Rd.),"No.2, Ren’an St., Sanchong Dist.(opposite)",18,1
65,500203044,YouBike2.0_新北高中,62,0,三重區,20231118113914,25.08723,121.48953,三信路1號(旁),Sanchong Dist,YouBike2.0_New Taipei Senior High School,"No.1, Sanxin Rd.",0,0
66,500203045,YouBike2.0_三重商工,72,14,三重區,20231118113914,25.06868,121.48071,中正北路163號(旁),Sanchong Dist,YouBike2.0_San-Chung Commercial and Industrial Vocational High School,"Ln. 163, Zhongzheng N. Rd.",58,1
67,500203046,YouBike2.0_二重國中,34,17,三重區,20231118113914,25.06596,121.48047,忠孝路三段75巷11號(對面),Sanchong Dist,YouBike2.0_Er Chung Junior High School,"No.11, Ln. 75, Sec. 3, Zhongxiao Rd.(Opposite)",17,1
68,500203047,YouBike2.0_自強溪尾街口,28,4,三重區,20231118113914,25.07822,121.49016,自強路四段55號(旁),Sanchong Dist,YouBike2.0_Ziqiang & Xiwei Intersection,"No.55, Sec. 4, Ziqiang Rd.",24,1
69,500203048,YouBike2.0_捷運三和國中站(1號出口),57,27,三重區,20231118113914,25.07588,121.4878,三和路四段216號(旁),Sanchong Dist,YouBike2.0_MRT Sanhe Junior High School Sta.,"No. 216, Sec. 4, Sanhe Rd.",30,1
70,500203049,YouBike2.0_永盛公園,23,0,三重區,20231118113914,25.07613,121.4843,車路頭街/車路頭街139巷(東南側),Sanchong Dist,YouBike2.0_YongSheng Park,"Ln. 139, Chelutou St.& Chelutou St. (Southeast)",23,1
71,500203050,YouBike2.0_捷運先嗇宮站(2號出口),38,9,三重區,20231118113914,25.04607,121.47099,重新路五段555號(對面),Sanchong Dist,YouBike2.0_MRT Xianse Temple Sta.(Exit.2),"No.555, Sec. 5, Chongxin Rd.(Opposite)",29,1
72,500203051,YouBike2.0_藍天大樓,20,12,三重區,20231118113914,25.0531,121.47017,興德路129號(前),Sanchong Dist,YouBike2.0_Lantian Building,"No.129, Xingde Rd., Sanchong Dist.",7,1
73,500203052,YouBike2.0_中興北街175巷口,31,3,三重區,20231118113914,25.05597,121.47133,中興北街175巷8號(對面),Sanchong Dist,YouBike2.0_Zhongxing N. St. 175 Ln,"No.8, Ln. 175,Zhongxing N. St., Sanchong Dist.(oppsite)",28,1
74,500203053,YouBike2.0_同安公園,33,23,三重區,20231118113914,25.05732,121.49907,正義南路165號(對面),Sanchong Dist,YouBike2.0_Tong An Park,"No.165, Zhengyi S. Rd. (Opposite)",10,1
75,500203054,YouBike2.0_東海高中,26,14,三重區,20231118113914,25.06484,121.47942,忠孝路三段89號(旁),Sanchong Dist,YouBike2.0_Tung Hai Senior High School,"No. 89, Sec. 3, Zhongxiao Rd., Sanchong Dist.",12,1
76,500203055,YouBike2.0_二重國小,38,1,三重區,20231118113914,25.06598,121.47766,頂崁街/忠孝路三段96巷(東北側),Sanchong Dist,YouBike2.0_Er Chong Elementary School,"Ln.96, Sec.3, Zhongxiao Rd.& Dingkan St. (Northeast)",36,1
77,500203056,YouBike2.0_新北市立圖書館三重分館,47,2,三重區,20231118113914,25.0661,121.49553,自強路一段158號(旁),Sanchong Dist,YouBike2.0_New Taipei City Library Sanchong Branch,"No.158, Sec. 1, Ziqiang Rd.",45,1
78,500203057,YouBike2.0_龍門公園,43,14,三重區,20231118113914,25.07482,121.49848,公園街45號(對面),Sanchong Dist,YouBike2.0_Longmen Park,"No.45, Gongyuan St.(Opposite)",29,1
79,500203058,YouBike2.0_永福國小,26,15,三重區,20231118113914,25.07771,121.48032,永福街79號(對面),Sanchong Dist,YouBike2.0_Yong Fu Elementary School,"No.79, Yongfu St.(Opposite)",11,1
80,500203059,YouBike2.0_太陽公園,25,10,三重區,20231118113914,25.08645,121.4856,集英路67號(對面),Sanchong Dist,YouBike2.0_Taiyang Park,"No.67, Jiying Rd.(Opposite)",15,1
81,500203060,YouBike2.0_捷運三重站(3號出口),19,7,三重區,20231118113914,25.05588,121.48474,捷運路/捷運路37巷,Sanchong Dist,YouBike2.0_MRT Sanchong Sta. (Exit 3),"Jieyun Rd./Ln. 37, Jieyun Rd.",12,1
82,500203061,YouBike2.0_仁愛街112巷,22,4,三重區,20231118113914,25.07486,121.49488,仁愛街112巷7號(對面),Sanchong Dist,"YouBike2.0_Ln. 112, Renhua St.","No. 7, Ln. 112, Ren’ai St., Sanchong Dist.",18,1
83,500203062,YouBike2.0_頂崁公園,14,10,三重區,20231118113914,25.05493,121.4756,頂文一街頂文二街口(東南側公園人行道),Sanchong Dist,YouBike2.0_Dingkan Park,Dingwen 1st & Dingwen 2nd St. Intersection,4,1
84,500203063,YouBike2.0_重陽國小,19,1,三重區,20231118113914,25.06625,121.48434,力行路一段38巷6號(對面),Sanchong Dist,YouBike2.0_Chong Yang Elementary School,"Zhongzheng N. Rd./Ln. 175, Sanmin St.",18,1
85,500203064,YouBike2.0_力行地下停車場,20,13,三重區,20231118113914,25.07787,121.48287,永福街10巷8號(旁),Sanchong Dist,YouBike2.0_li xing Underground Parking Lot,"No. 8, Lane 10, Yongfu St.",7,1
86,500203065,YouBike2.0_三重親水公園,18,7,三重區,20231118113914,25.09114,121.49039,環河北路三段/吉祥街(東南側),Sanchong Dist,YouBike2.0_Triple hydrophilic Park,"Section 3, Huanhe North Rd. & Jixiang St. (Southeast)",11,1
87,500203066,YouBike2.0_中正北路193巷(愛買三重店),32,8,三重區,20231118113914,25.07136,121.47599,中正北路193巷45號,Sanchong Dist,"YouBike2.0_Lane 193, Zhongzheng North Rd. (a.mart Sanchong)","No. 45, Lane 193, Zhongzheng North Rd.",24,1
88,500203067,YouBike2.0_三重商工地下停車場,21,1,三重區,20231118113914,25.06966,121.48352,力行路一段183號(對面),Sanchong Dist,YouBike2.0_San-Chung Commercial and Industrial Vocational High School basement parking,"No. 183, Sec. 1, Lixing Rd. (Opposite)",20,1
89,500203068,YouBike2.0_三重棒球場,25,8,三重區,20231118113914,25.0613,121.4815,新北大道一段157號(對面),Sanchong Dist,YouBike2.0_Sanchong Baseball Court,"No. 157, New Taipei Blvd.(Opposite)",17,1
90,500203069,YouBike2.0_溪尾街196巷/仁美街口,18,6,三重區,20231118113914,25.0802,121.48587,溪尾街196巷38號(旁),Sanchong Dist,"YouBike2.0_Ln. 196, Xiwei St. & Renmei St. Intersection","No. 38, Ln. 196, Xiwei St.",12,1
91,500203070,YouBike2.0_六張公園,38,2,三重區,20231118113914,25.06966,121.49405,民生東街/安慶街149巷(西北側),Sanchong Dist,YouBike2.0_Liuzhang Park,"No.21, Ln. 149, Anqing St.(oppsite)",36,1
92,500203071,YouBike2.0_自然公園,18,4,三重區,20231118113914,25.08984,121.48799,集賢路158號(旁),Sanchong Dist,YouBike2.0_Natural Park,Ruyi St./Jixian Rd.,14,1
93,500203072,YouBike2.0_仁美街/三和路四段145巷口,12,0,三重區,20231118113914,25.07872,121.48636,三和路四段145巷81號,Sanchong Dist,"YouBike2.0_Renmei St. & Ln. 145, Sec. 4, Sanhe Rd. Intersection","No. 81, Ln. 145, Sec. 4, Sanhe Rd.",12,1
94,500203073,YouBike2.0_光明市場,22,14,三重區,20231118113914,25.05734,121.49181,光明路67-1號南側,Sanchong Dist,YouBike2.0_Guangming Market,"No. 67-1, Guangming Rd.(South)",8,1
95,500203074,YouBike2.0_元富一街/仁義街79巷口,15,4,三重區,20231118113914,25.08006,121.49955,元富一街/仁義街79巷(東側),Sanchong Dist,"YouBike2.0_Yuanfu 1st. St. & Ln. 79, Renyi St.","Yuanfu 1st. St. & Ln. 79, Renyi St.(East)",11,1
96,500203075,YouBike2.0_國隆大仁街口,17,7,三重區,20231118113914,25.06468,121.492,大仁街23號(對面),Sanchong Dist,YouBike2.0_Guolong Daren St. Intersection,"No. 23, Daren St.(Opposite)",10,1
97,500203076,YouBike2.0_三和慈愛街口,11,0,三重區,20231118113914,25.07814,121.48417,三和路四段141號(前),Sanchong Dist,YouBike2.0_Sanhe Ci'ai St. Intersection,"No. 141, Sec. 4, Sanhe Rd.",11,1
98,500203077,YouBike2.0_三重社會福利服務中心,11,0,三重區,20231118113914,25.07781,121.49128,福隆路59號(對面),Sanchong Dist,YouBike2.0_Sanchong Social Welfare Center,"No. 59, Fulong Rd.(Opposite)",11,1
99,500203078,YouBike2.0_捷運三和國中站(2號出口),17,5,三重區,20231118113914,25.07703,121.48635,三和路四段109-1號(對面),Sanchong Dist,YouBike2.0_MRT Sanhe Junior High School Sta.(Exit 2),"No. 109-1, Sec. 4, Sanhe Rd.(Opposite)",7,1
100,500203079,YouBike2.0_三和龍門路口,18,12,三重區,20231118113914,25.0718,121.4949,三和路三段61號(前),Sanchong Dist,YouBike2.0_Sanhe Longmen Rd. Intersection,"No. 61, Sec. 3, Sanhe Rd.",6,1
101,500203080,YouBike2.0_元信二仁愛街口,20,2,三重區,20231118113914,25.07709,121.49417,仁愛街190號(對面),Sanchong Dist,YouBike2.0_Yuanxin 2nd & Ren'ai St. Intersection,"No. 190, Ren'ai St.(Opposite)",18,1
102,500203081,YouBike2.0_力行路二段91巷口,13,0,三重區,20231118113914,25.07583,121.48255,力行路二段93號(前),Sanchong Dist,"YouBike2.0_Ln. 91, Sec. 2, Lixing Rd. Intersection","No. 93, Sec. 2, Lixing Rd.",13,1
103,500203082,YouBike2.0_永福國小(永福街72巷),22,16,三重區,20231118113914,25.07657,121.47985,永福街72巷23號(對面),Sanchong Dist,"YouBike2.0_Yongfu Elementary School(Ln. 72, Yongfu St.)","No. 23, Ln. 72, Yongfu St.(Opposite)",6,1
104,500203083,YouBike2.0_格致中學,24,3,三重區,20231118113914,25.07403,121.48907,大智街260號(前),Sanchong Dist,YouBike2.0_Ger-jyh Senior High School,"No. 260, Dazhi St.",21,1
105,500203084,YouBike2.0_三重派出所,15,1,三重區,20231118113914,25.06395,121.5023,重新路一段43號(旁),Sanchong Dist,YouBike2.0_Sanchong Police Substation,"No. 43, Sec. 1, Chongxin Rd.",14,1
106,500203085,YouBike2.0_重陽橋市民活動中心,15,7,三重區,20231118113914,25.08634,121.49602,環河北路三段/集賢路(西北側),Sanchong Dist,YouBike2.0_Chongyang Bridge Civil Activity Center,"Sec. 3, Huanhe N. Rd. &Jixian Rd.(Northwest)",8,1
107,500203086,YouBike2.0_二重埔市民活動中心,20,13,三重區,20231118113914,25.06675,121.47557,大有街12-1號旁,Sanchong Dist,YouBike2.0_Erchongpu Civil Activity Center,"No. 12-1, Dayou St.",7,1
108,500203087,YouBike2.0_神農街/光復路二段129巷口,14,5,三重區,20231118113914,25.05899,121.47409,光復路二段87巷10-12號(旁),Sanchong Dist,"YouBike2.0_Shennong St. & Ln. 129, Sec. 2, Guangfu Rd. Intersection","No. 10-12, Ln. 87, Sec. 2, Guangfu Rd., Sanchong Dist.(side)",9,1
109,500203088,YouBike2.0_光榮國中(秀江街),20,3,三重區,20231118113914,25.07221,121.49994,秀江街107號(對面),Sanchong Dist,YouBike2.0_Guangrong Junior High School(Xiujiang St.),"No. 107, Xiujiang St., Sanchong Dist.(opposite)",17,1
110,500203089,YouBike2.0_神農興德路口(恆美社區),40,29,三重區,20231118113914,25.05333,121.47427,神農路/興德路(東南側),Sanchong Dist,YouBike2.0_Shennong St. & Xingde Rd. Intersection,Shennong Rd. & Xingde Rd. Intersection(Southeast),11,1
111,500203090,YouBike2.0_正義國小地下停車場,13,3,三重區,20231118113914,25.06492,121.49491,大智街22號(對面),Sanchong Dist,"YouBike2.0_No. 22, Dazhi St.(Opposite)","No. 22, Dazhi St.(Opposite)",10,1
112,500203091,YouBike2.0_群光公園,15,10,三重區,20231118113914,25.05604,121.47404,頂文路/神農街(西北側),Sanchong Dist,YouBike2.0_Qunguang Park,Dingwen Rd. & Shennong St. Intersection(Northwest),5,1
113,500203092,YouBike2.0_仁信段平面停車場,12,5,三重區,20231118113914,25.07914,121.49629,元信二街/元信二街202巷(東南側),Sanchong Dist,YouBike2.0_Renxin Parking Lot,"Yuanxin 2nd St. & Ln. 202, Yuanxin 2nd St. Intersection(Southeast)",7,1
114,500203093,YouBike2.0_中正北路25巷(交響院社區),40,8,三重區,20231118113914,25.06318,121.49185,中正北路29號,Sanchong Dist,"YouBike2.0_Ln.25, Zhongzheng Rd.","No. 29, Zhongzheng N. Rd.",32,1
115,500203094,YouBike2.0_興穀國小,15,10,三重區,20231118113914,25.04937,121.47421,神農街/五谷王北街42巷(東北側),Sanchong Dist,YouBike2.0_Xinggu Elementary School,"Shennong St. & Ln. 42, Wuguwang N. St.(Northeast)",5,1
116,500203095,YouBike2.0_三重區停八停車場,17,3,三重區,20231118113914,25.05365,121.47621,興德路55號南側,Sanchong Dist,"YouBike2.0_Parking Lot No.8, Sanchong","No. 55, Xingde Rd.(South)",14,1
117,500203096,YouBike2.0_國道車路頭街口,20,4,三重區,20231118113914,25.07307,121.48424,國道路一段39巷1號對面,Sanchong Dist,YouBike2.0_Guodao Rd. & Chelutou St. Intersection,"No.1, Ln.39, Sec.1, Guodao Rd. (opposite)",16,1
118,500203097,YouBike2.0_仁愛街422巷口,17,12,三重區,20231118113914,25.08153,121.49026,仁愛街423-1號對面,Sanchong Dist,"YouBike2.0_Ln.422, Ren'ai St.","No. 423-1, Ren'ai St. (opposite)",5,1
119,500203098,YouBike2.0_德厚公園,15,1,三重區,20231118113914,25.04883,121.47809,重新路五段/重新路五段317巷(東南側),Sanchong Dist,YouBike2.0_Dehou Park,"Sec. 5, Chongxin Rd. & Ln. 317, Sec. 5, Chongxin Rd. (Southeast)",14,1
120,500203099,YouBike2.0_永德市民活動中心,20,4,三重區,20231118113914,25.07285,121.48842,永德街37號(對側),Sanchong Dist,YouBike2.0_Yongde Civil Activity Center,"No. 37, Yongde St. (Opposite)",16,1
121,500203100,YouBike2.0_龍濱公園,14,2,三重區,20231118113914,25.07298,121.50218,秀江街28號(對面),Sanchong Dist,YouBike2.0_Longbin Park,"No. 28, Xiujiang St. (Opposite)",12,1
122,500203102,YouBike2.0_碧華國中(三賢街),30,7,三重區,20231118113914,25.08861,121.48832,三賢街101號(對面),Sanchong Dist,YouBike2.0_Bi-Hua Junior High School (Sanxian St.),"No. 101, Sanxian St. (Opposite)",22,1
123,500203103,YouBike2.0_溪尾街(國道橋下),15,0,三重區,20231118113914,25.07486,121.49151,溪尾街12號旁(國道橋下),Sanchong Dist,YouBike2.0_Xiwei St. (Under Freeway),"No. 12, Xiwei St. (Side ,Under Freeway)",15,1
124,500203106,YouBike2.0_自強臨時平面停車場,21,16,三重區,20231118113914,25.08229,121.49515,自強路五段89號(對面),Sanchong Dist,YouBike2.0_Ziqiang Parking Lot,"No. 89, Sec. 5, Ziqiang Rd. (Opposite)",5,1
125,500205001,YouBike2.0_恩主公醫院,50,14,三峽區,20231118113914,24.93891,121.36355,復興路399號東北側,Sanxia Dist,YouBike2.0_En Chu Kong Hospital,"No.399, Fuxing Rd.(Northeast)",35,1
126,500205002,YouBike2.0_安溪國小,22,2,三峽區,20231118113914,24.93122,121.37265,中華路42號,Sanxia Dist,YouBike2.0_Anxi Elementary School,"No.42, Zhonghua Rd., Sanxia Dist.",20,1
127,500205003,YouBike2.0_介壽國小,21,14,三峽區,20231118113914,24.93026,121.37912,大同路1號(北側),Sanxia Dist,YouBike2.0_Jieshou Elementary School,"No. 1, Datong Rd. (North)",6,1
128,500205004,YouBike2.0_安溪國中,16,7,三峽區,20231118113914,24.92638,121.37185,大同路135號(西側),Sanxia Dist,YouBike2.0_Anxi Junior high School,"No. 135, Datong Rd. (West)",3,1
129,500205005,YouBike2.0_三峽國光青年社會住宅,16,8,三峽區,20231118113914,24.93743,121.37686,三樹路5號西北側,Sanxia Dist,YouBike2.0_Sanxia Guoguang Youth Rental House,"No. 5, Sanshu Rd. (Northwest)",7,1
130,500205006,YouBike2.0_三峽區公所(三峽老街),28,10,三峽區,20231118113914,24.9339,121.36929,民權街36號南側,Sanxia Dist,YouBike2.0_Sanxia District Office(Sanxia Old Street),"No. 36, Minquan St. (South)",18,1
131,500205007,YouBike2.0_中園國小,16,10,三峽區,20231118113914,24.92785,121.36752,弘園街22號,Sanxia Dist,YouBike2.0_Zhongyuan elementary school,"No.22, Hongyuan St., Sanxia Dist",6,1
132,500205008,YouBike2.0_復興民生街口,20,10,三峽區,20231118113914,24.937,121.373,復興路45號(前),Sanxia Dist,YouBike2.0_Fuxing & Minsheng St. Intersection,"No. 45, Fuxing Rd., Sanxia Dist.",10,1
133,500205009,YouBike2.0_三峽國中,29,11,三峽區,20231118113914,24.9389,121.369,復興路238號(前人行道),Sanxia Dist,YouBike2.0_Sanxia Junior High School,"No. 238, Fuxing Rd. (front)",18,1
134,500205010,YouBike2.0_海洋公園,19,9,三峽區,20231118113914,24.94776,121.37676,大義路277號,Sanxia Dist,YouBike2.0_Ocean Park,"No. 277, Dayi Rd.",10,1
135,500205011,YouBike2.0_龍埔國小,30,4,三峽區,20231118113914,24.94104,121.37676,大學路47號對側,Sanxia Dist,YouBike2.0_Longpu elementary school,"No.47, Daxue Rd., Sanxia Dist.",26,1
136,500205012,YouBike2.0_國立臺北大學(三峽校區),58,19,三峽區,20231118113914,24.94594,121.3729,大學路160號(對側),Sanxia Dist,YouBike2.0_National Taipei University(Sanxia Campus),"No.160, Daxue Rd.(Opposite)",38,1
137,500205013,YouBike2.0_三鶯國民運動中心,17,9,三峽區,20231118113914,24.93697,121.36858,文化路210巷15號(對面),Sanxia Dist,YouBike2.0_Sanying Civil Sports Center,"No.15, Ln. 210, Wenhua Rd., Sanxia Dist.",8,1
138,500205014,YouBike2.0_臺北大學(音律資訊大樓),50,11,三峽區,20231118113914,24.94278,121.36992,圖資大道/法政路口(東南側),Sanxia Dist,YouBike2.0_NTPU(Computer Center),Tuzi Blvd. & Fazheng Rd. Intersection(Southeast),39,1
139,500205015,YouBike2.0_臺北大學體育館,22,10,三峽區,20231118113914,24.93974,121.36688,大學路151號(台北大學體育館前),Sanxia Dist,YouBike2.0_National Taipei University(stadium),"No. 151, Daxue Rd.(National Taipei University(stadium)",12,1
140,500205016,YouBike2.0_中華愛國路口,10,4,三峽區,20231118113914,24.9327,121.37462,愛國路71號(旁),Sanxia Dist,YouBike2.0_Zhonghua Ai'guo Rd. Intersection,"No. 71, Ai'guo Rd",6,1
141,500205017,YouBike2.0_中山科學研究院,14,4,三峽區,20231118113914,24.90328,121.35512,中正路3段1號(前),Sanxia Dist,YouBike2.0_National Chung-Shan Institute of Science & Technology,"No. 1, Section 3, Zhongzheng Rd.(Front)",10,1
142,500205018,YouBike2.0_學成大義路口(學成路一),13,4,三峽區,20231118113914,24.94477,121.37803,大義路195號(東南側公車站旁),Sanxia Dist,YouBike2.0_Xuecheng Dayi Rd.Intersection (Xuecheng Rd. 1),"No. 195, Dayi Rd.(Southeast Bus station)",8,1
143,500205019,YouBike2.0_龍埔三樹路98巷口,22,9,三峽區,20231118113914,24.93989,121.38393,三樹路98巷175號(旁),Sanxia Dist,"YouBike2.0_Longpu & Ln. 98, Sancshu Rd. Intersection","No. 175, Ln. 98, Sanshu Rd.",13,1
144,500205020,YouBike2.0_三峽區礁溪行政中心,16,4,三峽區,20231118113914,24.92843,121.37592,光明路96-100號對面,Sanxia Dist,YouBike2.0_Sanxia District Jiaoxi Administration Center,"No. 96-100, Guangming Rd. (Opposite)",12,1
145,500205021,YouBike2.0_新北市客家文化園區,17,12,三峽區,20231118113914,24.94207,121.36034,隆恩街239號(前人行道),Sanxia Dist,YouBike2.0_Hakka Museum New Taipei City Government,"No.239, Long’en St., Sanxia Dist.",5,1
146,500205022,YouBike2.0_龍恩公園,21,8,三峽區,20231118113914,24.94135,121.37052,國際一街90號南側,Sanxia Dist,YouBike2.0_longen Park,"No. 90, Guoji 1st St. (South)",12,1
147,500205023,YouBike2.0_龍埔公園,23,6,三峽區,20231118113914,24.93841,121.3742,國光街73號(對面),Sanxia Dist,YouBike2.0_Longpu Park,"No.73, Guoguang St., Sanxia Dist",17,1
148,500205024,YouBike2.0_大智中山路口,20,4,三峽區,20231118113914,24.93782,121.36084,大智路25號(前),Sanxia Dist,YouBike2.0_Dazhi Wenhua Rd.Intersection,"No.25, Dazhi Rd.",16,1
149,500205025,YouBike2.0_明德高中,27,17,三峽區,20231118113914,24.90742,121.36472,中正路二段399號(西北側),Sanxia Dist,YouBike2.0_Mingde High School,"No. 399, Sec. 2, Zhongzheng Rd.(Northwest)",10,1
150,500205026,YouBike2.0_學府大學路口,18,1,三峽區,20231118113914,24.94779,121.3718,學府路6號,Sanxia Dist,YouBike2.0_Xuefu Daxue Rd. Intersection,"No. 6, Xuefu Rd.",17,1
151,500205027,YouBike2.0_學府大德路口,12,0,三峽區,20231118113914,24.94864,121.37362,大德路493號北側,Sanxia Dist,YouBike2.0_Xuefu Dade Rd. Intersection,"No. 493, Dade Rd.(North)",12,0
152,500205028,YouBike2.0_大德學勤路口,15,1,三峽區,20231118113914,24.94634,121.37506,學勤路105號,Sanxia Dist,YouBike2.0_Dade Xueqin Rd. Intersection,"No. 105, Xueqin Rd.",14,1
153,500205029,YouBike2.0_學勤大觀路口,15,9,三峽區,20231118113914,24.94584,121.37430,學勤路86號,Sanxia Dist,YouBike2.0_Xueqin Daguan Rd. Intersection,"No. 86, Xueqin Rd.",6,1
154,500205030,YouBike2.0_學成大德路口,13,9,三峽區,20231118113914,24.94334,121.37634,學成路278號,Sanxia Dist,YouBike2.0_Xuecheng Dade Rd. Intersection,"No. 278, Xuecheng Rd.",4,1
155,500205031,YouBike2.0_三樹大德路口,15,1,三峽區,20231118113914,24.94163,121.37871,三樹路197號,Sanxia Dist,YouBike2.0_Sanshu Dade Rd. Intersection,"No. 197, Sanshu Rd.",14,1
156,500205032,YouBike2.0_大義三樹路口,14,8,三峽區,20231118113914,24.94357,121.37899,大義路7號,Sanxia Dist,YouBike2.0_Dayi Sanshu Rd. Intersection,"No. 7, Dayi Rd.",6,1
157,500205033,YouBike2.0_中園國小(民權街),19,7,三峽區,20231118113914,24.92853,121.36767,民權街209號,Sanxia Dist,YouBike2.0_Zhongyuan Elementary School(Minquan St.),"No. 209, Minquan St.",12,1
158,500205034,YouBike2.0_三峽國小(中山路),21,0,三峽區,20231118113914,24.93474,121.36779,中山路16號,Sanxia Dist,YouBike2.0_Sanxia Elementary School(Zhongshan Rd.),"No. 16, Zhongshan Rd.",21,1
159,500205035,YouBike2.0_臺北大學宿舍(學成路),20,9,三峽區,20231118113914,24.94092,121.36856,學成路3號,Sanxia Dist,YouBike2.0_National Taipei University Dormitory(Xuecheng Rd.),"No. 3, Xuecheng Rd.",11,1
160,500205036,YouBike2.0_國際二國學街口,15,9,三峽區,20231118113914,24.94319,121.37233,國際二街33號,Sanxia Dist,YouBike2.0_Guoji 2nd Guoxue St. Intersection,"No. 33, Guoji 2nd St.",6,1
161,500205037,YouBike2.0_大學學成路口,11,9,三峽區,20231118113914,24.94298,121.37521,大學路113號,Sanxia Dist,YouBike2.0_Daxue Xuecheng Rd. Intersection,"No. 113, Daxue Rd.",2,1
162,500205038,YouBike2.0_國慶三樹路口,20,8,三峽區,20231118113914,24.93826,121.37738,國慶路2號,Sanxia Dist,YouBike2.0_Guoqing Sanshu Rd. Intersection,"No. 2, Guoqing Rd.",12,1
163,500205039,YouBike2.0_三樹大學路口,14,4,三峽區,20231118113914,24.93951,121.37816,三樹路69號,Sanxia Dist,YouBike2.0_Sanshu Daxue Rd. Intersection,"No. 69, Sanshu Rd.",10,1
164,500205040,YouBike2.0_薇多綠雅社區(警衛亭),19,5,三峽區,20231118113914,24.90883,121.35816,二鬮路136巷49號北側,Sanxia Dist,YouBike2.0_Victoria Community(Guard Booth),"No. 49, Ln. 136, Erjiu Rd.(North)",12,1
165,500205041,YouBike2.0_薇多綠雅社區(活動中心),15,9,三峽區,20231118113914,24.90955,121.35727,二鬮路136巷73號北側,Sanxia Dist,YouBike2.0_Victoria Community(Activity Center),"No. 73, Ln. 136, Erjiu Rd.(North)",6,1
166,500205042,YouBike2.0_溪東市民活動中心,20,6,三峽區,20231118113914,24.93192,121.40753,溪東路218巷3號前,Sanxia Dist,YouBike2.0_Xidong Civil Activity Center,"No. 3, Ln. 218, Xidong Rd.",12,1
167,500205043,YouBike2.0_光明路69巷口,10,6,三峽區,20231118113914,24.92918,121.37726,光明路69巷37號,Sanxia Dist,"YouBike2.0_Ln. 69, Guangming Rd. Intersection","No. 37, Ln. 69, Guangming Rd.",4,1
168,500205044,YouBike2.0_大同路270巷口,15,5,三峽區,20231118113914,24.92526,121.36551,大同路268號對側,Sanxia Dist,"YouBike2.0_Ln. 270, Datong Rd. Intersection","No. 268, Datong Rd.(Opposite)",10,1
169,500205045,YouBike2.0_龍埔自行車道(民生街1巷),20,6,三峽區,20231118113914,24.93455,121.37824,民生街1巷5-82號,Sanxia Dist,"YouBike2.0_Longpu Bikeway (Ln. 1, Minsheng St.)","No. 5-82, Ln. 1, Minsheng St.",14,1
170,500205046,YouBike2.0_龍埔介壽路口,16,12,三峽區,20231118113914,24.93513,121.39008,介壽路二段25號東側,Sanxia Dist,YouBike2.0_Longpu & Jieshou Intersection,"No. 25, Sec. 2, Jieshou Rd.(East)",4,1
171,500205047,YouBike2.0_國慶學成路口,10,5,三峽區,20231118113914,24.94095,121.37397,學成路216號(南側),Sanxia Dist,YouBike2.0_0,"No. 216, Xuecheng Rd.(South)",5,1
172,500205048,YouBike2.0_中園街福隆宮,15,5,三峽區,20231118113914,24.92239,121.36717,中園街124號(旁),Sanxia Dist,YouBike2.0_Zhongyuan St. Fulong Temple,"No. 124, Zhongyuan St.",10,1
173,500205049,YouBike2.0_臺北大學蓮池,24,8,三峽區,20231118113914,24.94723,121.37117,臺北大學蓮池,Sanxia Dist,YouBike2.0_NTPU Lotus Pond,NTPU Lotus Pond,16,1
174,500205050,YouBike2.0_臺北大學商學院(尋鳶大道),11,2,三峽區,20231118113914,24.94557,121.37249,尋鳶大道/中央大道(西北側),Sanxia Dist,YouBike2.0_NTPU College of Business (Kite-Seeking Avenue),Kite-Seeking Avenue & Central Avenue (Northwest),9,1
175,500205051,YouBike2.0_臺北大學商學院(法商大道),26,15,三峽區,20231118113914,24.94499,121.37146,法商大道/中央大道(東北側),Sanxia Dist,YouBike2.0_法商大道/中央大道(東北側),Law & Commerce Avenue & Central Avenue (Northeast),11,1
176,500205052,YouBike2.0_臺北大學行政大樓(法商大道),23,12,三峽區,20231118113914,24.94494,121.3712,法商大道/中央大道(西北側),Sanxia Dist,YouBike2.0_法商大道/中央大道(西北側),Law & Commerce Avenue & Central Avenue (Northeast),11,1
177,500205053,YouBike2.0_臺北大學法學院(鳶飛大道),29,15,三峽區,20231118113914,24.94438,121.37333,臺北大學法學院(鳶飛大道),Sanxia Dist,YouBike2.0_臺北大學法學院(鳶飛大道),NTPU College of Law (Kite-Soaring Avenue),14,1
178,500205054,YouBike2.0_臺北大學公共事務大樓(法商大道),22,11,三峽區,20231118113914,24.94363,121.37212,臺北大學公共事務大樓(法商大道),Sanxia Dist,YouBike2.0_NTPU College of Public Affairs (Law & Commerce Avenue),NTPU College of Public Affairs (Law & Commerce Avenue),11,1
179,500205055,YouBike2.0_臺北大學公共事務大樓(公政大道),23,14,三峽區,20231118113914,24.94325,121.37121,臺北大學公共事務大樓(公政大道),Sanxia Dist,YouBike2.0_臺北大學公共事務大樓(公政大道),NTPU College of Public Affairs (Public Affairs & Administration Avenue),8,1
180,500205056,YouBike2.0_臺北大學行政大樓(公政大道),34,13,三峽區,20231118113914,24.94457,121.37037,公政大道/中央大道(東北側),Sanxia Dist,YouBike2.0_NTPU Administration Center(Law & Commerce Avenue),Public Affairs & Administration Avenue & Central Avenue (Northeast),21,1
181,500205057,YouBike2.0_臺北大學社科院(公政大道),25,11,三峽區,20231118113914,24.94441,121.3701,公政大道/中央大道(西北側),Sanxia Dist,YouBike2.0_NTPU College of Social Sciences (Public Affairs & Administration Avenue),Public Affairs & Administration Avenue & Central Avenue (Northwest),14,1
182,500205058,YouBike2.0_臺北大學社科院(圖資大道),27,12,三峽區,20231118113914,24.94396,121.36912,臺北大學社科院(圖資大道),Sanxia Dist,YouBike2.0_臺北大學社科院(圖資大道),NTPU College of Social Sciences (Library & Information Avenue),15,1
183,500205059,YouBike2.0_臺北大學田徑場(體風路),30,16,三峽區,20231118113914,24.9395,121.36433,臺北大學田徑場(體風路),Sanxia Dist,YouBike2.0_臺北大學田徑場(體風路),NTPU Athletic Field (Sprotsmanship Rd.),14,1
184,500205060,YouBike2.0_臺北大學隆恩哨(忘憂路),15,3,三峽區,20231118113914,24.94254,121.36547,臺北大學隆恩哨(忘憂路),Sanxia Dist,YouBike2.0_NTPU Long'en Gate (The Merry Rd.),NTPU Long'en Gate (The Merry Rd.),12,1
185,500205061,YouBike2.0_臺北大學懷德居木師基地,14,8,三峽區,20231118113914,24.94334,121.36743,臺北大學懷德居木師基地,Sanxia Dist,YouBike2.0_臺北大學懷德居木師基地,"NTPU Woodworking Complex, HDG",6,1
186,500205062,YouBike2.0_北大高中,23,9,三峽區,20231118113914,24.9492,121.37505,大義路277號(北側),Sanxia Dist,YouBike2.0_Bei Da High School,"No. 277, Dayi Rd.(North)",14,1
187,500205063,YouBike2.0_光明停車場,15,9,三峽區,20231118113914,24.93036,121.37410,光明路/愛國路(東側停車場內),Sanxia Dist,YouBike2.0_Guangming Parking Lot,Guangming Rd./ Aiguo Rd. (East),6,1
188,500205064,YouBike2.0_八安大橋(清水街),10,5,三峽區,20231118113914,24.92701,121.36891,中園街13號(清水街側),Sanxia Dist,YouBike2.0_Ba'an Bridge,"No. 13, Zhongyuan St.(Qingshui St. side)",4,1
189,500205065,YouBike2.0_三峽中山公園,15,4,三峽區,20231118113914,24.93561,121.36584,文化路/中山路口(西南側),Sanxia Dist,YouBike2.0_Sanxia Zhongshan Park,Wenhua Rd. & Zhongshan Rd. (Southwest),11,1
190,500205066,YouBike2.0_三鶯國民運動中心停車場,22,3,三峽區,20231118113914,24.93614,121.36941,文化路164號(對面),Sanxia Dist,YouBike2.0_Sanying Civil Sports Center Parking Lot,"No. 164, Wenhua Rd. (Opposite)",19,1
191,500206001,YouBike2.0_華南頂埔科技大樓,40,4,土城區,20231118113914,24.96046,121.41716,民權路1號,Tucheng Dist,YouBike2.0_Hua Nan Dingpu Technology Building,"No. 1, Minquan St.",36,1
192,500206002,YouBike2.0_新北高工(學士路),28,2,土城區,20231118113914,24.98216,121.45277,學士路41號(前),Tucheng Dist,YouBike2.0_New Taipei Industrial Vocational High School (Xueshi Rd.),"No. 41, Xueshi Rd.",26,1
193,500206003,YouBike2.0_清水社區公園,34,1,土城區,20231118113914,24.98382,121.46353,延吉街381巷與延吉街口,Tucheng Dist,YouBike2.0_Qing Shui Community Park,"Ln. 381, Yanji St. & Yanji St. Intersection",32,1
194,500206004,YouBike2.0_土城仁愛社區公園,34,1,土城區,20231118113914,24.98071,121.46035,仁愛路12號旁,Tucheng Dist,YouBike2.0_Tucheng Renai Park,"No. 12, Ren’ai Rd.",33,1
195,500206005,YouBike2.0_清和里(青雲路),32,21,土城區,20231118113914,24.97513,121.45874,青雲路449號(對面),Tucheng Dist,YouBike2.0_Qinghe Village(Qingyun Rd.),"No.449, Qingyun Rd.",11,1
196,500206006,YouBike2.0_斬龍山遺址文化公園,54,0,土城區,20231118113914,24.97666,121.44770,龍山一街與金城路二段路口,Tucheng Dist,YouBike2.0_Zhanlongshan Archaeological Park,"Longshan 1st St./Sec. 2, Jincheng Rd., Tucheng Dist.",54,1
197,500206007,YouBike2.0_中央路一段292巷口,48,1,土城區,20231118113914,24.98279,121.44383,中央路一段274號(對面),Tucheng Dist,"YouBike2.0_Ln. 292, Sec. 1, Zhongyang Rd. Intersection","No. 274, Sec. 1, Zhongyang Rd., Tucheng Dist.(opposite)",47,1
198,500206008,YouBike2.0_中華城林路口,18,2,土城區,20231118113914,24.97525,121.43883,中華路二段165號前(天橋下),Tucheng Dist,YouBike2.0_Zhonghua & Chenglin Intersection,"No. 165, Sec. 2, Zhonghua Rd.",16,1
199,500206009,YouBike2.0_頂埔市場,24,0,土城區,20231118113914,24.95816,121.41504,中州路28巷30號,Tucheng Dist,YouBike2.0_Dingpu Market,"No. 30, Ln. 28, Zhongzhou Rd., Tucheng Dist.",24,1
200,500206010,YouBike2.0_土城綜合體育場,46,2,土城區,20231118113914,24.98367,121.45423,裕民路195巷旁,Tucheng Dist,YouBike2.0_Tucheng Sports Field,"Ln. 195, Yumin Rd.",44,1
201,500206011,YouBike2.0_捷運海山站(1號出口),56,30,土城區,20231118113914,24.98441,121.44855,裕生路67巷14號前人行道(東側),Tucheng Dist,YouBike2.0_MRT Haishan,"No.14, Ln 67, Yusheng Rd.(East)",26,1
202,500206012,YouBike2.0_學成公園,32,2,土城區,20231118113914,24.98803,121.45151,學成路72號對面公園(西南側),Tucheng Dist,YouBike2.0_Xuecheng Park,"No. 72, Xuecheng Rd., Tucheng Dist.",30,1
203,500206013,YouBike2.0_員和公園,56,8,土城區,20231118113914,24.978918316048684,121.44275033207957,中央路二段66號對面(東側),Tucheng Dist,YouBike2.0_Yuanhe Park,"No.66, Sec. 2, Zhongyang Rd., Tucheng Dist.(opposite)",47,1
204,500206014,YouBike2.0_捷運土城站(2號出口),31,8,土城區,20231118113914,24.9728,121.44395,捷運土城站公車站牌旁人行道,Tucheng Dist,YouBike2.0_MRT Tucheng Sta.(Exit 2),MRT Tucheng Sta.(Exit 2),23,1
205,500206015,YouBike2.0_金城忠義路口,35,4,土城區,20231118113914,24.9691,121.44024,金城路一段18號旁(西側),Tucheng Dist,YouBike2.0_Jincheng & Zhongyi Intersection,"No. 18, Sec. 1, Jincheng Rd.(West)",31,1
206,500206016,YouBike2.0_捷運永寧站(2號出口),37,9,土城區,20231118113914,24.96613,121.43554,中央路三段112號對面人行道(南側),Tucheng Dist,YouBike2.0_MRT Yungning Sta.(EXIT 2),"No. 112, Sec. 3, Zhongyang Rd.(oppsite)",28,1
207,500206017,YouBike2.0_亞洲員安路口,23,6,土城區,20231118113914,24.97256,121.43485,亞洲路9號旁人行道(東側),Tucheng Dist,YouBike2.0_Yazhou & Yuan'an Rd.,"No. 9, Yazhou Rd., Tucheng Dist.",17,1
208,500206018,YouBike2.0_金城立德路口,27,0,土城區,20231118113914,24.98689,121.46602,金城路三段41號前(南側),Tucheng Dist,YouBike2.0_Jincheng & Lide Intersection,"No.41, Sec. 3, Jincheng Rd.(Side)",27,1
209,500206019,YouBike2.0_金城立體停車場,30,4,土城區,20231118113914,24.98367,121.45795,金城路2段266號旁(西側陸橋旁),Tucheng Dist,YouBike2.0_Jincheng Parking Lot,"No.266, Sec. 2, Jincheng Rd.(West)",26,1
210,500206020,YouBike2.0_土城國中,36,3,土城區,20231118113914,24.96243,121.43037,永寧路18號(對面),Tucheng Dist,YouBike2.0_Tucheng Junior High School,"No.18, Yongning Rd., Tucheng Dist.",33,1
211,500206021,YouBike2.0_沛陂社區公園,12,0,土城區,20231118113914,24.963262311576905,121.41969877977414,土城區三民路23巷8弄(公園裡面),Tucheng Dist,YouBike2.0_Peipo Community Park,"Aly. 8, Ln. 23, Sanmin Rd., Tucheng Dist",12,1
212,500206022,YouBike2.0_捷運頂埔站(2號出口),30,17,土城區,20231118113914,24.95852,121.41780,中央路四段53號(前),Tucheng Dist,YouBike2.0_MRT Dingpu Sta.(Exit.2),"No.53, Sec. 4, Zhongyang Rd.",13,1
213,500206023,YouBike2.0_頂埔國小,25,0,土城區,20231118113914,24.95636,121.4144,中央路四段205號(頂埔國小校門口)(鄰近土城親子分館),Tucheng Dist,YouBike2.0_Dingpu Elementary School,"No.205, Sec. 4, Zhongyang Rd.",25,1
214,500206024,YouBike2.0_頂新祖田市民活動中心,38,7,土城區,20231118113914,24.95319,121.41211,中央路四段285號,Tucheng Dist,YouBike2.0_Dingxin-Zutian Civic Activity Center,"No.285, Sec. 4, Zhongyang Rd.",29,1
215,500206025,YouBike2.0_捷運海山站(3號出口),88,25,土城區,20231118113914,24.98639,121.44911,海山路/樂利街(西北側),Tucheng Dist,YouBike2.0_MRT Haishan Sta.(Exit 3),Haishan Rd. & Leli St. (Northeast),41,1
216,500206026,YouBike2.0_大安中央路口,27,3,土城區,20231118113914,24.96576,121.43264,大安路8號對面(西側),Tucheng Dist,YouBike2.0_Da'an & Zhongyang Intersection,"No. 8, Da'an Rd.(West)",24,1
217,500206027,YouBike2.0_中山1號科技總部,16,7,土城區,20231118113914,24.96044660965163,121.41212396244534,中山路1號,Tucheng Dist,YouBike2.0_Zhongshan No. 1 Technology Headquarters,"No. 1, Zhongshan Rd., Tucheng Dist.",9,1
218,500206028,YouBike2.0_長風社區,26,5,土城區,20231118113914,24.97811,121.43937,土城區中華路二段91~95號(人行道),Tucheng Dist,YouBike2.0_Changfeng Community,"No.91~95, Sec. 2, Zhonghua Rd., Tucheng Dist",21,1
219,500206029,YouBike2.0_中央慶利街口(風華綠中央社區),12,1,土城區,20231118113914,24.97338,121.44052,中央路二段288號(前),Tucheng Dist,YouBike2.0_Zhongyang & Qingli Intersection,"No. 288, Sec. 2, Zhongyang Rd.",11,1
220,500206030,YouBike2.0_金城裕民路口(金城舞社區),30,2,土城區,20231118113914,24.98156,121.45466,金城路二段200號(旁),Tucheng Dist,YouBike2.0_Gincheng & Yumin Intersection,"No. 200, Sec. 2, Jincheng Rd., Tucheng Dist.",28,1
221,500206031,YouBike2.0_青雲路451巷口(紐約艾美社區),31,22,土城區,20231118113914,24.97475,121.45873,青雲路449號(對面),Tucheng Dist,"YouBike2.0_Ln. 451, Qingyun Rd.","No. 449, Qingyun Rd. (Opposite)",9,1
222,500206032,YouBike2.0_學士學府路口(大苑社區),37,7,土城區,20231118113914,24.976958449938596,121.44580101471448,學士路/學府路口(西北側建案基地),Tucheng Dist,YouBike2.0_Xueshi & Xuefu Intersection,Xueshi & Xuefu Intersection,30,1
223,500206033,YouBike2.0_新北高工,25,3,土城區,20231118113914,24.98344,121.45054,學府路一段241號前,Tucheng Dist,YouBike2.0_New Taipei Industrial Vocational High School,"No.241, Sec. 1, Xuefu Rd., Tucheng Dist",22,1
224,500206034,YouBike2.0_中華裕華街口,13,3,土城區,20231118113914,24.99003,121.4472,中華路一段/裕華街口(東北側),Tucheng Dist,YouBike2.0_Zhonghua &Yuhua Intersection,"Sec. 1, Zhonghua Rd.&Yuhua St.",10,1
225,500206035,YouBike2.0_金城裕民路口(中正國中),49,15,土城區,20231118113914,24.98288,121.45619,金城路二段218號對面(西北側),Tucheng Dist,YouBike2.0_Gincheng & Yumin Intersection(Zhing Zheng Junior High School),"No.218, Sec. 2, Jincheng Rd., Tucheng Dist.",34,1
226,500206036,YouBike2.0_中華中央路一段242巷口,41,2,土城區,20231118113914,24.98551,121.44348,中華路一段185號前(東側),Tucheng Dist,"YouBike2.0_Zhonghua & Ln. 242, Sec. 1, Zhongyang Intersection","No.185, Sec. 1, Zhonghua Rd., Tucheng Dist.",4,1
227,500206037,YouBike2.0_員林社區公園,45,13,土城區,20231118113914,24.97784,121.44328,員林街16號對面(北側),Tucheng Dist,YouBike2.0_Yuanlin Community Park,"Ln. 16, Yuanlin St. (opposite)",32,1
228,500206038,YouBike2.0_延和社區公園,40,22,土城區,20231118113914,24.99018,121.46882,延和路180號旁(西側),Tucheng Dist,YouBike2.0_Yanhe Community Park,"No. 180, Yanhe Rd.",18,1
229,500206039,YouBike2.0_青山廣場,32,6,土城區,20231118113914,24.97793,121.45987,明德路一段240巷1-1號前(東側),Tucheng Dist,YouBike2.0_Qingshan Square,"No.1-1, Ln. 240, Sec. 1, Mingde Rd.",26,1
230,500206040,YouBike2.0_立德青雲路口,29,6,土城區,20231118113914,24.9883,121.46102,立德路2號對面(北側),Tucheng Dist,YouBike2.0_Lide & Qingyun Intersection,"No.2, Lide Rd., Tucheng Dist.",22,1
231,500206041,YouBike2.0_廣福派出所,21,0,土城區,20231118113914,24.98816,121.45655,學府路一段76號前(南側),Tucheng Dist,YouBike2.0_Guangfu Police Substation,"No.76, Sec. 1, Xuefu Rd.(South)",21,1
232,500206042,YouBike2.0_延吉街291巷口,10,1,土城區,20231118113914,24.98394,121.46716,延吉街291巷/延吉街253巷18弄口(西南側),Tucheng Dist,"YouBike2.0_Ln. 291, Yanji St.","Ln. 291, Yanji St. & Aly. 18, Ln. 253, Yanji St.(Southwest)",9,1
233,500206043,YouBike2.0_清水高中,33,1,土城區,20231118113914,24.982,121.46547,明德路一段72號前(公車站清水高中站旁),Tucheng Dist,YouBike2.0_Qing Shui Senior High School,"No.72, Sec. 1, Mingde Rd.",32,1
234,500206044,YouBike2.0_裕民路口(清水路),34,0,土城區,20231118113914,24.98157,121.45616,清水路68號(西側),Tucheng Dist,YouBike2.0_Yumin Rd. Intersection(Qingshui Rd.),"No. 68, Qingshui Rd.(West)",34,1
235,500206046,YouBike2.0_中華日新街口,10,2,土城區,20231118113914,24.98756,121.44463,中華路一段/日新街口(西北側),Tucheng Dist,YouBike2.0_Zhonghua Rixin St. Intersection,"Sec. 1, Zhonghua Rd. & Rixin St. Intersection(Northwest)",8,1
236,500206047,YouBike2.0_清水高中(國際路),13,3,土城區,20231118113914,24.98034,121.46498,明德路一段139號西側,Tucheng Dist,YouBike2.0_Qingshui High School(Guoji Rd.),"No. 139, Sec. 1, Mingde Rd.(West)",10,1
237,500206048,YouBike2.0_延吉街111巷1弄,18,2,土城區,20231118113914,24.98623,121.47171,延吉街111巷10號北側,Tucheng Dist,"YouBike2.0_Aly. 1, Ln. 111, Yanji St.","No. 10, Ln. 111, Yanji St.(North)",16,1
238,500206049,YouBike2.0_大安市民活動中心,25,5,土城區,20231118113914,24.96595,121.43935,忠承路30號,Tucheng Dist,YouBike2.0_Da'an Civic Activity Center,"No. 30, Zhongcheng Rd.",20,1
239,500206050,YouBike2.0_中央中華路口(金城),16,1,土城區,20231118113914,24.96875,121.43808,中央路三段38號,Tucheng Dist,YouBike2.0_Zhongyang Zhonghua Rd. Intersection(Jincheng),"No. 38, Sec. 3, Zhongyang Rd.",15,1
240,500206051,YouBike2.0_土城國小(興城路),17,2,土城區,20231118113914,24.97267,121.44149,慶安街45巷11號東側,Tucheng Dist,YouBike2.0_Tucheng Elementary School(Xingcheng Rd.),"No. 11, Ln. 45, Qing'an St.(East)",15,1
241,500206052,YouBike2.0_金城龍山二街口,20,1,土城區,20231118113914,24.97881,121.45096,金城路二段36號北側,Tucheng Dist,YouBike2.0_Jincheng Longshan 2nd St. Intersection,"No. 36, Sec. 2, Jincheng Rd.(North)",19,1
242,500206053,YouBike2.0_新北高工(明德路),18,0,土城區,20231118113914,24.98112,121.45150,明德路二段73號北側,Tucheng Dist,YouBike2.0_New Taipei Industrial Vocational High School(Mingde Rd.),"No. 73, Sec. 2, Mingde Rd.(North)",18,1
243,500206054,YouBike2.0_廣福國小,15,0,土城區,20231118113914,24.98713,121.45506,學府路一段144巷2號南側,Tucheng Dist,YouBike2.0_Guangfu Elementary School,"No. 2, Ln. 144, Sec. 1, Xuefu Rd.(South)",15,1
244,500206056,YouBike2.0_裕生停車場,15,8,土城區,20231118113914,24.9846,121.44687,裕生路106號,Tucheng Dist,YouBike2.0_Yusheng Parking Lot,"No. 106, Yusheng Rd.",7,1
245,500206057,YouBike2.0_中央路四段33號北側,15,8,土城區,20231118113914,24.96222,121.42329,中央路四段33號北側,Tucheng Dist,"YouBike2.0_No. 33, Sec. 4, Zhongyang Rd.(North)","No. 33, Sec. 4, Zhongyang Rd.(North)",6,1
246,500206058,YouBike2.0_和平路105號,10,3,土城區,20231118113914,24.96847,121.45129,和平路105號(前),Tucheng Dist,"YouBike2.0_No. 105, Heping Rd.","No. 105, Heping Rd.",7,1
247,500206059,YouBike2.0_金城路三段52巷,16,1,土城區,20231118113914,24.98635,121.46609,金城路三段52巷8號(前),Tucheng Dist,"YouBike2.0_Ln. 52, Sec. 3, Jincheng Rd.","No. 8, Ln. 52, Sec. 3, Jincheng Rd.",15,1
248,500206060,YouBike2.0_延吉街47巷口,10,2,土城區,20231118113914,24.98795,121.47236,延吉街49號(對面),Tucheng Dist,"YouBike2.0_Ln. 291, Yanji St. Intersection","No. 49, Yanji St.(Opposite)",8,1
249,500206061,YouBike2.0_莒光四村停車場,12,3,土城區,20231118113914,24.98716,121.44639,中央路一段189巷1弄4號,Tucheng Dist,YouBike2.0_Juguang 4th Village Parking Lot,"No. 4, Aly. 1, Ln. 189, Sec. 1, Zhongyang Rd.",9,1
250,500206062,YouBike2.0_中央路三段281巷,24,0,土城區,20231118113914,24.96314,121.42679,中央路三段281巷5號(對面),Tucheng Dist,"YouBike2.0_Ln. 281, Sec. 3, Zhongyang Rd.","No. 5, Ln. 281, Sec. 3, Zhongyang Rd.",24,1
251,500206063,YouBike2.0_捷運永寧站(3號出口),23,0,土城區,20231118113914,24.96711,121.43688,中央路三段99號(旁),Tucheng Dist,YouBike2.0_MRT Yungning Sta.(EXIT 3),"No. 99, Sec. 3, Zhongyang Rd.",23,1
252,500206064,YouBike2.0_捷運永寧站(4號出口),12,9,土城區,20231118113914,24.96744,121.43677,中央路三段62號(前),Tucheng Dist,YouBike2.0_MRT Yungning Sta.(EXIT 4),"No. 62, Sec. 3, Zhongyang Rd.",3,1
253,500206065,YouBike2.0_捷運土城站(1號出口),10,3,土城區,20231118113914,24.97314,121.44418,金城路一段78號(對面),Tucheng Dist,YouBike2.0_MRT Tucheng Sta.(Exit 1),"No. 357, Sec. 2, Ganyuan St.(Opposite)",7,1
254,500206066,YouBike2.0_青雲路434巷口,18,10,土城區,20231118113914,24.97193,121.45915,青雲路571號(旁),Tucheng Dist,"YouBike2.0_Ln. 434, Qingyun Rd. Intersection","No. 571, Qingyun Rd.",8,1
255,500206067,YouBike2.0_中央路二段180巷,15,5,土城區,20231118113914,24.97616,121.44162,中央路二段180巷1號(旁),Tucheng Dist,"YouBike2.0_Ln. 180, Sec. 2, Zhongyang Rd.","No. 1, Ln. 180, Sec. 2, Zhongyang Rd.",10,1
256,500206068,YouBike2.0_日和中華路口,21,10,土城區,20231118113914,24.98402,121.44283,日和街31號對面,Tucheng Dist,YouBike2.0_Rihe & Chunghwa Rd. Intersection,"No. 31, Rihe St.(Opposite)",11,1
257,500206069,YouBike2.0_員林平面停車場,9,0,土城區,20231118113914,24.97681,121.44437,員林街76號(旁),Tucheng Dist,YouBike2.0_Yuanlin Parking Lot,"No. 76, Yuanlin St.",9,1
258,500206070,YouBike2.0_學士龍山二街口(金城舞2社區),31,0,土城區,20231118113914,24.97991,121.45049,學士路100號(對面),Tucheng Dist,YouBike2.0_Xueshi & Longshan 2nd Street Intersection,"No.100, Xueshi Rd.(Opposite)",31,1
259,500206071,YouBike2.0_中央公園地下停車場,15,1,土城區,20231118113914,24.98276,121.44478,土城區中央路一段291巷24號(旁),Tucheng Dist,YouBike2.0_Zhongyang Parking Lot,"No. 24, Ln. 291, Sec. 1, Zhongyang Rd.",14,1
260,500206072,YouBike2.0_中華路一段70巷口,12,6,土城區,20231118113914,24.98825,121.4454,中華路一段60號(前),Tucheng Dist,"YouBike2.0_Ln. 70, Sec. 1, Zhonghua Rd. Intersection","No. 60, Sec. 1, Zhonghua Rd",6,1
261,500206073,YouBike2.0_延和廣場,19,0,土城區,20231118113914,24.98704,121.46415,立德路60號(對面),Tucheng Dist,YouBike2.0_Yenhe Square,"No. 60, Lide Rd.(Opposite)",19,1
262,500206074,YouBike2.0_明德平面停車場,10,0,土城區,20231118113914,24.98403,121.46628,永豐路190號(旁),Tucheng Dist,YouBike2.0_Mingde Parking Lot,"No. 190, Yongfeng Rd.",10,1
263,500206075,YouBike2.0_惜福公園,20,1,土城區,20231118113914,24.98144,121.44815,莊園街151號(旁),Tucheng Dist,YouBike2.0_Xifu Park,"No. 151, Zhuangyuan St.",19,1
264,500206081,YouBike2.0_裕華街,15,2,土城區,20231118113914,24.99050,121.44643,裕華街16-36號(旁),Tucheng Dist,YouBike2.0_Yuhua St.,"No. 16-36, Yuhua St. (Side)",13,1
265,500206082,YouBike2.0_土城區公所,28,0,土城區,20231118113914,24.97190,121.44316,金城路一段101號(前),Tucheng Dist,YouBike2.0_Tucheng  District Office,"No. 101, Sec. 1, Jincheng Rd. (Front)",28,1
266,500206083,YouBike2.0_捷運土城站(3號出口),33,4,土城區,20231118113914,24.97390,121.44527,金城路一段90號(旁),Tucheng Dist,YouBike2.0_MRT Tucheng Sta.(Exit 3),"No. 90, Sec. 1, Jincheng Rd. (Side)",29,1
267,500207001,YouBike2.0_民有公園,36,1,中和區,20231118113914,25.00863,121.47468,中山路3段118-3號(對面),Zhonghe Dist,YouBike2.0_Minyou Park,"No. 118-3, Sec. 3, Zhongshan Rd. (opposite)",35,1
268,500207002,YouBike2.0_捷運橋和站,46,8,中和區,20231118113914,25.00572,121.48906,板南路467號(前),Zhonghe Dist,YouBike2.0_MRT Qiaohe Sta.,"No. 467, Bannan Rd.",38,1
269,500207003,YouBike2.0_漳和國中,37,6,中和區,20231118113914,25.00244,121.50505,廣福路30號(對面),Zhonghe Dist,YouBike2.0_Zhanghe Junior High School,"No. 30, Guangfu Rd.",31,1
270,500207004,YouBike2.0_光華橋(保平路),31,0,中和區,20231118113914,25.00467,121.50779,中山路2段3巷58-3號(東側),Zhonghe Dist,YouBike2.0_Guanghua Bridge (Baoping Rd.),"No. 58, Ln. 3, Sec. 2, Zhongshan Rd.",31,1
271,500207005,YouBike2.0_捷運南勢角站(4號出口),60,11,中和區,20231118113914,24.98942,121.50998,捷運路3號(對面),Zhonghe Dist,YouBike2.0_MRT Nanshijiao Sta.(Exit 4),"No.3, Jieyun Rd., Zhonghe Dist.(opposite)",49,1
272,500207006,YouBike2.0_中正路161巷口,44,0,中和區,20231118113914,24.99299,121.49935,中正路161巷26弄5號對面(東北側),Zhonghe Dist,"YouBike2.0_Ln.161,Zhongzheng & Zhongzheng Intersection","No.5, Aly. 26, Ln. 161, Zhongzheng Rd.",44,1
273,500207007,YouBike2.0_景安板南路口,21,5,中和區,20231118113914,24.99228,121.50424,南山路148號對面(東側),Zhonghe Dist,YouBike2.0_Jing’an / Bannan Intersection,Jing’an Rd./Bannan Rd.,16,1
274,500207008,YouBike2.0_新北市立中和高級中學,32,5,中和區,20231118113914,24.99424,121.4786,連城路573-2號對面(西北側),Zhonghe Dist,YouBike2.0_New Taipei Municipal Zhonghe Senior High School,"No.573-2, Liancheng Rd.(opposite)",15,1
275,500207009,YouBike2.0_民享藝文特區,40,8,中和區,20231118113914,25.00354,121.47529,民治街30號對面(南側),Zhonghe Dist,YouBike2.0_Minxiang Art Zone,"No.30, Minzhi St.(oppsite)",32,1
276,500207010,YouBike2.0_雙和醫院,19,14,中和區,20231118113914,24.99367,121.49411,中正路281號(公車亭旁),Zhonghe Dist,YouBike2.0_Shuang Ho Hospital,"No. 281, Zhongzheng Rd.",4,1
277,500207011,YouBike2.0_捷運景安站,70,39,中和區,20231118113914,24.99352,121.50472,景平路486號(對面),Zhonghe Dist,YouBike2.0_MRT Jingan Station,"No. 486, Jingping Rd., Zhonghe Dist.(opposite)",31,1
278,500207012,YouBike2.0_中原東街(左岸牡丹園),29,0,中和區,20231118113914,25.01297,121.48601,中原東街/中原二街(東北側人行道),Zhonghe Dist,YouBike2.0_Zhongyuan E St. ( Left bank Peony Garden ),Zhongyuan E St. / Zhongyuan 2nd St. Intersection,29,1
279,500207013,YouBike2.0_安邦公園,43,6,中和區,20231118113914,24.99678,121.49651,安邦街與連勝街口(西北側),Zhonghe Dist,YouBike2.0_Anbang Park,Anbang St./Liansheng St.(intersection),37,1
280,500207014,YouBike2.0_中和國民運動中心,54,16,中和區,20231118113914,24.99348,121.48758,和城路一段/中正二橋,Zhonghe Dist,YouBike2.0_Zhonghe Civil Sports Center,"Sec. 1, Hecheng Rd./ Zhongzheng Second Bridge",38,1
281,500207015,YouBike2.0_捷運景平站,36,26,中和區,20231118113914,24.99202,121.51563,景平路127號旁(東側),Zhonghe Dist,YouBike2.0_MRT Jingping Sta.,"No.127, Jingping Rd. (East)",10,1
282,500207016,YouBike2.0_中和安和路口,29,6,中和區,20231118113914,24.99966,121.50602,中和路212號(東側),Zhonghe Dist,YouBike2.0_Zhonghe & Anhoe Rd.,"No. 212, Zhonghe Rd. (East)",23,1
283,500207017,YouBike2.0_民樂人行廣場,32,11,中和區,20231118113914,25.00184,121.48265,員山路266巷33號對面(南側),Zhonghe Dist,YouBike2.0_Minle Jenhsing Square,"No.33, Ln. 266, Yuanshan Rd.",18,1
284,500207018,YouBike2.0_碧河宮,36,0,中和區,20231118113914,24.99665,121.49314,中正路368-12號對面人行道(西側),Zhonghe Dist,YouBike2.0_Bihe Temple,"No. 368-12, Zhongshan Rd.",36,1
285,500207019,YouBike2.0_圓通錦和路口,29,10,中和區,20231118113914,24.98955,121.49125,圓通路367巷8號對面路側(東北側),Zhonghe Dist,YouBike2.0_Yuantong & Jinhe Intersection,"No.8, Ln. 367, Yuantong Rd.",19,1
286,500207020,YouBike2.0_福和宮,47,19,中和區,20231118113914,25.00111,121.50195,廣福路112號前路側(南側),Zhonghe Dist,YouBike2.0_Fuhe Temple,"No.112, Guangfu Rd.",27,1
287,500207021,YouBike2.0_華新街109巷11弄,48,1,中和區,20231118113914,24.97996,121.50873,華新街109巷11弄(機車格),Zhonghe Dist,"YouBike2.0_Aly. 11, Ln. 109, Huaxin St.","Aly. 11, Ln. 109, Huaxin St.",47,1
288,500207022,YouBike2.0_中和青年社會住宅,46,17,中和區,20231118113914,24.99099,121.51918,景德街7號對面公園(東北側),Zhonghe Dist,YouBike2.0_Zhonghe Youth Rental House,"No.7, Ln. 127, Xiufeng St.",29,1
289,500207023,YouBike2.0_捷運中原站,64,5,中和區,20231118113914,25.00765,121.48486,板南路496號對面(西南側),Zhonghe Dist,YouBike2.0_MRT Zhogyuan Station,"No.496, Bannan Rd.",59,1
290,500207024,YouBike2.0_環河西路三段(日安社區),18,5,中和區,20231118113914,25.00774,121.49321,環河西路三段66號(旁),Zhonghe Dist,"YouBike2.0_Sec. 3, Huanhe W. Rd. (Rian Community)","No.66, Sec. 3, Huanhe W. Rd., Zhonghe Dist.",13,1
291,500207025,YouBike2.0_中和地政事務所,18,2,中和區,20231118113914,24.99039,121.5024,復興路280號,Zhonghe Dist,YouBike2.0_Zhonghe Land Office,"No.280, Fuxing Rd.",16,1
292,500207026,YouBike2.0_員勝公園,30,6,中和區,20231118113914,25.01028,121.47869,員山路591號(巷內),Zhonghe Dist,YouBike2.0_Yuansheng Park,"No.591, Yuanshan Rd., Zhonghe Dist.",24,1
293,500207027,YouBike2.0_元氣大鎮社區,17,3,中和區,20231118113914,25.00572,121.479,中和區中山路三段與台新街口,Zhonghe Dist,YouBike2.0_Uanchi Big Town Commun,"Sec. 3, Zhongshan Rd./Taixin St., Zhonghe Dist.",14,1
294,500207028,YouBike2.0_積穗國中,19,7,中和區,20231118113914,24.99977,121.47808,民安街71號(對面),Zhonghe Dist,YouBike2.0_Jisui Junior High School,"No.71, Min’an St., Zhonghe Dist.(opposite)",10,1
295,500207029,YouBike2.0_興南路二段34巷口,14,0,中和區,20231118113914,24.98539,121.50701,興南路二段34巷1號(對面),Zhonghe Dist,"YouBike2.0_Ln. 34, Sec. 2, Xingnan Rd.","No. 1, Ln. 34, Sec. 2, Xingnan Rd., Zhonghe Dist.(opposite)",14,1
296,500207030,YouBike2.0_捷運中和站,24,15,中和區,20231118113914,25.00221,121.49587,中山路2段291號(前),Zhonghe Dist,YouBike2.0_MRT Zhonghe Station,"No. 291, Sec. 2, Zhongshan Rd., Zhonghe Dist",9,1
297,500207031,YouBike2.0_福祥里(中和溝),29,24,中和區,20231118113914,25.00593,121.49957,福祥路90巷7弄1號對側空間,Zhonghe Dist,YouBike2.0_Fuxiang Village (Zhonghe Ditch),"No.1, Aly. 7, Ln. 90, Fuxiang Rd.(oppsite)",5,1
298,500207032,YouBike2.0_中和區公所,18,3,中和區,20231118113914,24.99856,121.50053,景平路634-2號 ( 中和區公所正門機車格位 ),Zhonghe Dist,YouBike2.0_Zhonghe District Office,"No.634-2, Jingping Rd.",15,1
299,500207033,YouBike2.0_飛駝社區(興南路),22,0,中和區,20231118113914,24.98347,121.50483,中和區興南路二段159巷4號(人行道),Zhonghe Dist,YouBike2.0_Feito Community(Xingnan Rd.),"No.4, Ln. 159, Sec. 2, Xingnan Rd., Zhonghe Dist(sidewalk)",22,1
300,500207034,YouBike2.0_安樂宜安路口,25,10,中和區,20231118113914,24.99527,121.51351,中和區安樂路101之1號,Zhonghe Dist,YouBike2.0_Anle & Yian Rd. Intersection,"No.1, Anle Rd., Zhonghe Dist.",15,1
301,500207035,YouBike2.0_中和環球購物中心,24,14,中和區,20231118113914,25.00637,121.47422,中山路三段130號,Zhonghe Dist,YouBike2.0_Zhonghe Global Mall,"No.130, Sec. 3, Zhongshan Rd.",10,1
302,500207036,YouBike2.0_華福市民活動中心,26,18,中和區,20231118113914,24.99548,121.46753,民德路296號對面停車格位,Zhonghe Dist,YouBike2.0_Huafu Civil Activity Center,"No.296, Minde Rd. (opposite)",8,1
303,500207037,YouBike2.0_圓通路335巷33弄,22,8,中和區,20231118113914,24.98899,121.49303,圓通路335巷33弄15號(西側),Zhonghe Dist,"YouBike2.0_Aly. 33, Ln. 335, Yuantong Rd.","No.15, Aly. 33, Ln. 335, Yuantong Rd., Zhonghe Dist.",14,1
304,500207038,YouBike2.0_山北公園,20,9,中和區,20231118113914,25.00653,121.50014,莊敬路33巷36弄2號(對面),Zhonghe Dist,YouBike2.0_Shanbei Park,"No.2, Aly. 36, Ln. 33, Zhuangjing Rd., Zhonghe Dist.(opposite)",11,1
305,500207039,YouBike2.0_遠雄左岸,45,3,中和區,20231118113914,25.00983,121.48808,中原街90號旁人行道(西側),Zhonghe Dist,YouBike2.0_Yuanxiong Left Bank,"No.90, Zhongyuan St., Zhonghe Dist.(West)",42,1
306,500207040,YouBike2.0_瓦磘溝(福真里),23,2,中和區,20231118113914,25.00402,121.49439,中山路二段312巷33弄27號旁公園(西側),Zhonghe Dist,YouBike2.0_Wayao Ditch (Fuzhen Village),"No.27, Aly. 33, Ln. 312, Sec. 2, Zhongshan Rd., Zhonghe Dist.",21,1
307,500207041,YouBike2.0_佳和公園,27,4,中和區,20231118113914,25.00694,121.5032,中山路二段2巷25號對面(北側),Zhonghe Dist,YouBike2.0_Chiahe Park,"No.25, Ln. 2, Sec. 2, Zhongshan Rd., Zhonghe Dist (North)",23,1
308,500207042,YouBike2.0_捷運秀朗橋站,30,10,中和區,20231118113914,24.99045,121.52496,景平路2號(南側),Zhonghe Dist,YouBike2.0_MRT Xiulang Bridge Station,"No. 2, Jingping Rd., Zhonghe Dist.",20,1
309,500207043,YouBike2.0_德光莒光路口,24,1,中和區,20231118113914,25.0047,121.47178,莒光路2號對面(北側),Zhonghe Dist,YouBike2.0_Deguang & Juguang Intersection,"No. 2, Juquang Rd., Zhonghe Dist.",23,1
310,500207044,YouBike2.0_中和公園,43,8,中和區,20231118113914,25.00073,121.51435,安樂路148號對面(西北側),Zhonghe Dist,YouBike2.0_Zhonghe Park,"No.148, Anle Rd.(Opposite)",35,1
311,500207045,YouBike2.0_秀朗成功路口,33,4,中和區,20231118113914,24.9956,121.52655,成功路二段215號(西側),Zhonghe Dist,YouBike2.0_Xiulang & Chenggong Intersection,"No.215, Sec. 2, Chenggong Rd.(West)",29,1
312,500207046,YouBike2.0_捷運永安市場站,53,41,中和區,20231118113914,25.00049,121.51111,中安街126號對面人行道(東側),Zhonghe Dist,YouBike2.0_MRT Yongan Market Sta.,"No.126, Zhong’an St.(East)",12,1
313,500207047,YouBike2.0_德光國光街口,21,6,中和區,20231118113914,25.00314,121.46809,中和區德光國光街口(巷子路側),Zhonghe Dist,YouBike2.0_Tekuang & Kuokuang Intersection,"Deguang Rd., Zhonghe Dist./Guoguang St.",15,1
314,500207048,YouBike2.0_錦和高中,14,2,中和區,20231118113914,24.99351,121.49076,錦和路/和城路口(東南角),Zhonghe Dist,YouBike2.0_Jinghe Senior High School,Jinhe & Hecheng Intersection,12,1
315,500207049,YouBike2.0_民德立體停車場,18,3,中和區,20231118113914,24.99909,121.46836,民德路188號,Zhonghe Dist,YouBike2.0_Minde Parking Lot,"No.188, Minde Rd.",14,1
316,500207050,YouBike2.0_景新國小,14,1,中和區,20231118113914,24.98893,121.5148,景新街467巷33號(對面),Zhonghe Dist,YouBike2.0_Jingxin Elementary School,"No. 33, Lane 467, Jingxin St.(Front)",13,1
317,500207051,YouBike2.0_南華路56巷,16,0,中和區,20231118113914,24.99706,121.50431,南華路57號(對面),Zhonghe Dist,"YouBike2.0_Lane 56, Nanhua Rd","No. 57, Nanhua Rd. (Opposite)",16,1
318,500207052,YouBike2.0_中和自強公園,29,1,中和區,20231118113914,24.99886,121.47238,莒光路181號對側公園人行道(西側),Zhonghe Dist,YouBike2.0_Neutralize Ziqiang Park,"No.181, Juguang Rd. (opposite park West)",28,1
319,500207053,YouBike2.0_烘爐地山下籃球場,14,6,中和區,20231118113914,24.9798,121.4987,興南路二段/興南路二段399巷口(東南側),Zhonghe Dist,YouBike2.0_Oven ground Under the mountain Basketball court,"Sec 2 Xingnan Rd. & Ln. 399, Sec 2 Xingnan Rd.(Southeast)",8,1
320,500207054,YouBike2.0_秀山國小,59,10,中和區,20231118113914,24.99612,121.52192,更生街19號對面(南側),Zhonghe Dist,YouBike2.0_Xiushan Elementary School,Gengsheng St./Zili Rd.,49,1
321,500207055,YouBike2.0_華夏科技大學,42,0,中和區,20231118113914,24.98067,121.50765,工專路32號對面人行道(東側),Zhonghe Dist,YouBike2.0_Hwa Hsia University of Technology,"No.111, Gongzhuan Rd.",42,1
322,500207057,YouBike2.0_圓通綠廊,13,1,中和區,20231118113914,24.9945,121.49711,圓通路176號東側,Zhonghe Dist,YouBike2.0_Yuantong Green Way,"No. 176, Yuantong Rd.(East)",12,1
323,500207058,YouBike2.0_板南路492號,15,1,中和區,20231118113914,25.00754,121.48582,板南路492號,Zhonghe Dist,"YouBike2.0_No. 492, Bannan Rd.","No. 492, Bannan Rd.",14,1
324,500207059,YouBike2.0_壽德新村,18,0,中和區,20231118113914,24.99548,121.46536,壽德街12號(前),Zhonghe Dist,YouBike2.0_Shoude New Village,"No. 12, Shoude St.",18,1
325,500207060,YouBike2.0_雙和醫院(圓通路252巷口),36,22,中和區,20231118113914,24.99092,121.49373,圓通路252-3號南側,Zhonghe Dist,"YouBike2.0_Shuang ho Hospital(Ln. 252, Yuantong Rd. Intersection)","No. 252-3, Yuantong Rd.(South)",14,1
326,500207061,YouBike2.0_安平橋,15,2,中和區,20231118113914,24.99474,121.50936,安和路47號(對面),Zhonghe Dist,YouBike2.0_Anping bridge,"No. 47, An'he Rd.(Opposite)",13,1
327,500207062,YouBike2.0_景本里集會所,15,0,中和區,20231118113914,24.98933,121.51326,景新街423巷4號北側,Zhonghe Dist,YouBike2.0_Jingben Village Activity Center,"No. 4, Ln. 423, Jingxin St.(North)",15,1
328,500207063,YouBike2.0_秀山公園(北側),14,1,中和區,20231118113914,24.99592,121.52327,自立路15巷27號,Zhonghe Dist,YouBike2.0_Xiushan Park(North),"No. 27, Ln. 15, Zili Rd.",13,1
329,500207064,YouBike2.0_華福公園,16,2,中和區,20231118113914,24.99728,121.46529,華順街109號西側,Zhonghe Dist,YouBike2.0_Huafu Park,"No. 109, Huashun St.(West)",14,1
330,500207065,YouBike2.0_中和公園(秀安街口),15,7,中和區,20231118113914,25.00218,121.51498,安樂路226號西側,Zhonghe Dist,YouBike2.0_Zhonghe Park(Xiu'an St. Intersection),"No. 226, Anle Rd.(West)",8,1
331,500207066,YouBike2.0_台灣電力公司中和服務所,17,8,中和區,20231118113914,24.99149,121.50683,和平街33號,Zhonghe Dist,YouBike2.0_Taipower Zhonghe Service Center,"No. 33, Heping St.",9,1
332,500207067,YouBike2.0_碧河里公園(建康路),16,5,中和區,20231118113914,25.00013,121.49171,建康路226號,Zhonghe Dist,YouBike2.0_Bihe Village Park(Jiankang Rd.),"No. 226, Jiankang Rd.",11,1
333,500207068,YouBike2.0_捷運景平站(景平路278巷口),20,15,中和區,20231118113914,24.99244,121.51513,景平路258號,Zhonghe Dist,"YouBike2.0_MRT Jingping Sta.(Ln. 278, Jingping Rd. Intersection)","No. 258, Jingping Rd.",5,1
334,500207069,YouBike2.0_華新街143巷,15,1,中和區,20231118113914,24.97942,121.50632,華新街143巷61-2號西側,Zhonghe Dist,"YouBike2.0_Ln. 143, Huaxin St.","No. 61-2, Ln. 143, Huaxin St.(West)",13,1
335,500207070,YouBike2.0_華夏科技大學(華新街),16,0,中和區,20231118113914,24.98247,121.50785,華新街148號南側,Zhonghe Dist,YouBike2.0_Hwa Hsia University of Technology(Huaxin St.),"No. 148, Huaxin St.(South)",16,1
336,500207071,YouBike2.0_中原中板路口,18,0,中和區,20231118113914,25.01169,121.48521,中原街146號前,Zhonghe Dist,YouBike2.0_Zhongyuan Zhongban Rd. Imtersection,"No. 146, Zhongyuan St.",18,1
337,500207072,YouBike2.0_中原五街口,20,2,中和區,20231118113914,25.01086,121.48603,中原街126號旁,Zhonghe Dist,YouBike2.0_Zhongyuan 5th St. Intersection,"No. 126, Zhongyuan St.",18,1
338,500207073,YouBike2.0_飛駝二村,11,2,中和區,20231118113914,24.9836,121.51138,忠孝街56號對面,Zhonghe Dist,YouBike2.0_Feituo 2nd Village,"No. 56, Zhongxiao St.(Opposite)",9,1
339,500207074,YouBike2.0_國光街圓環小公園,16,2,中和區,20231118113914,25.00135,121.46987,國光街112巷14弄1號旁,Zhonghe Dist,YouBike2.0_Guoguang St. Circle Park,"No. 1, Aly. 14, Ln. 112, Guoguang St.",14,1
340,500207075,YouBike2.0_興南路二段231巷口,19,1,中和區,20231118113914,24.98229,121.50350,興南路二段180號(對面),Zhonghe Dist,"YouBike2.0_Ln. 231, Sec. 2, Xingnan Rd. Intersection","No. 180, Sec. 2, Xingnan Rd.(Opposite)",18,1
341,500207076,YouBike2.0_嘉穗公園,10,10,中和區,20231118113914,24.99566,121.4784,員山路143巷40弄12號,Zhonghe Dist,YouBike2.0_Jiasui Park,"No. 12, Aly. 40, Ln. 143, Yuanshan Rd.",0,1
342,500207077,YouBike2.0_中山橋安街口,12,3,中和區,20231118113914,25.00274,121.49253,中山路二段362號(前),Zhonghe Dist,YouBike2.0_Zhongshan & Qiao'an Intersection,"No. 362, Sec. 2, Zhongshan Rd., Zhonghe Dist.",9,1
343,500207078,YouBike2.0_板南立言街口,15,4,中和區,20231118113914,25.00655,121.48791,板南路486號(對面),Zhonghe Dist,YouBike2.0_Ban'nanLiyan St. Intersection,"No. 486, Bannan Rd., Zhonghe Dist.",11,1
344,500207079,YouBike2.0_中原抽水站,15,8,中和區,20231118113914,25.00985,121.48968,環河西路三段123號(旁),Zhonghe Dist,YouBike2.0_Zhongyuan Pumping Station,"No. 123, Sec. 3, Huanhe W. Rd., Zhonghe Dist.",7,1
345,500207080,YouBike2.0_建六中正路口,12,5,中和區,20231118113914,25.00223,121.48526,中正路806號(旁),Zhonghe Dist,YouBike2.0_Jian 6th. & Zhongzheng Intersection,"No. 806, Zhongzheng Rd., Zhonghe Dist. (side)",6,1
346,500207081,YouBike2.0_審計人員訓練大樓,10,0,中和區,20231118113914,24.98184,121.50956,華新街109巷5號東南側,Zhonghe Dist,YouBike2.0_Auditor Training Building,"No. 5, Ln. 109, Huaxin St.(Southeast)",10,1
347,500207082,YouBike2.0_遠東世紀廣場C棟,10,3,中和區,20231118113914,24.99853,121.48645,建八路6號,Zhonghe Dist,YouBike2.0_FarEast Century Park Building C,"No. 6, Jian 8th Rd",7,1
348,500207083,YouBike2.0_員山路36巷口,19,8,中和區,20231118113914,24.9908,121.48211,員山路39號,Zhonghe Dist,"YouBike2.0_Ln. 36, Yuanshan Rd. Intersection","No. 39, Yuanshan Rd.",11,1
349,500207084,YouBike2.0_民德路口,17,1,中和區,20231118113914,25.00203,121.46885,民德路47號(前),Zhonghe Dist,YouBike2.0_Minde Rd. Intersection,"No. 47, Minde Rd.",16,1
350,500207086,YouBike2.0_和城停車場,15,8,中和區,20231118113914,24.99404,121.48917,中正路501號東側,Zhonghe Dist,YouBike2.0_Hecheng Parking Lot,"No. 501, Zhongzheng Rd.(East)",6,1
351,500207087,YouBike2.0_民樂停車場,20,1,中和區,20231118113914,25.00134,121.48391,民樂路65號,Zhonghe Dist,YouBike2.0_Minle Parking Lot,"No. 65, Minle Rd.",19,1
352,500207088,YouBike2.0_佳和公園(中山路二段64巷7弄),15,0,中和區,20231118113914,25.00492,121.50358,中山路二段64巷7弄3號(對面),Zhonghe Dist,"YouBike2.0_Jiahe Park (Aly.7, Ln.64, Sec.2, Zhongshan Rd.)","No.3, Aly.7, Ln.64, Sec.2, Zhongshan Rd. (opposite)",15,1
353,500207089,YouBike2.0_水源路29巷/光華街口,11,0,中和區,20231118113914,25.00414,121.50429,水源路29巷10號(對面),Zhonghe Dist,"YouBike2.0_Ln.29, Shuiyuan Rd. & Guanghua St. Intersection","No.10, Ln.29, Shuiyuan Rd. (opposite)",11,1
354,500207090,YouBike2.0_莒光路136巷口,15,0,中和區,20231118113914,25.00133,121.47261,莒光路145號(前),Zhonghe Dist,"YouBike2.0_Ln.136, Juguang Rd.","No.145, Juguang Rd. (front)",15,1
355,500207091,YouBike2.0_佳和公園(中山路二段64巷5弄),26,6,中和區,20231118113914,25.00435,121.50186,中山路二段136巷6弄9號西側,Zhonghe Dist,"YouBike2.0_Jiahe Park (Aly.5, Ln.64, Sec.2, Zhongshan Rd.)","No.9, Aly.6, Ln.136, Sec.2, Zhongshan Rd. (west)",20,1
356,500207092,YouBike2.0_景新立體停車場,12,6,中和區,20231118113914,24.98985,121.51301,景新街399巷12號,Zhonghe Dist,YouBike2.0_Jingxin Parking Lot,"No. 12, Ln. 399n Jingxin St.",6,1
357,500207093,YouBike2.0_秀朗路三段10巷12弄,17,10,中和區,20231118113914,24.99719,121.52567,秀朗路三段2-5號(旁),Zhonghe Dist,"YouBike2.0_I1191  Aly.12, Ln,10, Sec.3, Xiulang Rd.","No. 2-5, Sec. 3, Xiulang Rd.(side)",7,1
358,500207094,YouBike2.0_景平橋和路口,15,6,中和區,20231118113914,25.00672,121.49479,橋和路241號南側,Zhonghe Dist,YouBike2.0_Jingping Rd. & Qiaohe Rd. Intersection,"No. 241, Qiaohe Rd. (South)",9,1
359,500207095,YouBike2.0_中興街180巷口,18,0,中和區,20231118113914,24.99098,121.49985,中興街200號(前),Zhonghe Dist,"YouBike2.0_Ln. 180, Zhongxing St. Intersection","No. 200, Zhongxing St. (Front)",17,1
360,500209001,YouBike2.0_新城一路(守讓堂),15,0,五股區,20231118113914,25.08373,121.4407,新五路二段169號(北側),Wugu Dist,YouBike2.0_Xincheng 1st. Rd.,"No. 169, Sec. 2, Xinwu Rd.(North)",15,1
361,500209002,YouBike2.0_德音國小,17,1,五股區,20231118113914,25.07198,121.43564,成泰路一段/成泰路一段98巷口(西北側),Wugu Dist,YouBike2.0_Deyin Elementary School,"Ln. 98, Sec. 1, Chengtai Rd. & Sec. 1, Chengtai Rd. (Northwest)",16,1
362,500209003,YouBike2.0_五股工商立體停車場,18,12,五股區,20231118113914,25.08245,121.43955,中興路四段17號(北側),Wugu Dist,YouBike2.0_Wugu Gongshang Parking Lot,"No. 17, Sec. 4, Zhongxing Rd.(North)",6,1
363,500209004,YouBike2.0_成德公園,16,8,五股區,20231118113914,25.10484,121.45282,成泰路三段/疏洪北路(東南側),Wugu Dist,YouBike2.0_Chengde Park,"Sec. 3, Chengtai Rd.& Shuhong N. Rd.(intersecion)",7,1
364,500209005,YouBike2.0_五股國民運動中心,18,3,五股區,20231118113914,25.09537,121.44832,成泰路三段353號(對面公園內),Wugu Dist,YouBike2.0_Wugu Civil Sports Center,"No. 353, Sec. 3, Chengtai Rd.(Opposite)",15,1
365,500209006,YouBike2.0_貿商國宅,15,7,五股區,20231118113914,25.06939,121.43068,登林路76-3號(前人行道),Wugu Dist,YouBike2.0_Mao Shang Public Housing,"No.76-3, Denglin Rd., Wugu Dist.",8,1
366,500209007,YouBike2.0_新北市工商展覽中心,24,14,五股區,20231118113914,25.06433,121.44761,五工六路35號(對面),Wugu Dist,YouBike2.0_New Taipei City Exhibition Hall,"No.35, Wugong 6th Rd., Wugu Dist.(Opposite)",10,1
367,500209008,YouBike2.0_公五公園,34,26,五股區,20231118113914,25.08655,121.44529,芳州五路/芳州三路口(西北側),Wugu Dist,YouBike2.0_Wugu Gongwu Park,Fangzhou 5th Rd./Fangzhou 3rd. Rd.(Northwest),8,1
368,500209009,YouBike2.0_芳洲八路,16,5,五股區,20231118113914,25.0888,121.44631,芳洲八路152號(對面),Wugu Dist,YouBike2.0_Fangzhou 8th Road,"No. 152, Fangzhou 8th Rd., Wugu Dist.(opposite)",11,1
369,500209010,YouBike2.0_凌雲路一段158巷口,15,0,五股區,20231118113914,25.10356,121.44818,凌雲路一段158巷22號(對面),Wugu Dist,"YouBike2.0_Ln. 158, Sec. 1, Lingyun Rd.","No. 22, Ln. 158, Sec. 1, Lingyun Rd. (Opposite)",15,1
370,500209011,YouBike2.0_德泰公園,13,0,五股區,20231118113914,25.06812,121.43505,成泰路一段79號(旁),Wugu Dist,YouBike2.0_DeTai Park,"No. 79, Sec. 1, Chengtai Rd., Wugu Dist.",13,0
371,500209012,YouBike2.0_新北市立圖書館五股成功分館,16,6,五股區,20231118113914,25.09472,121.44685,西雲路167號(南側),Wugu Dist,YouBike2.0_New Taipei City Library Wugu-Chenggong Branch,"No.167, Xiyun Rd. (South)",10,1
372,500209013,YouBike2.0_成州國小,16,4,五股區,20231118113914,25.09952,121.4509,成泰路三段493號(東側),Wugu Dist,YouBike2.0_Chengzhou Elementary School,"No.493, Sec. 3, Chengtai Rd., Wugu Dist. (East)",12,1
373,500209014,YouBike2.0_台北得意GO,14,0,五股區,20231118113914,25.07429,121.46769,四維路116號(人行道),Wugu Dist,YouBike2.0_Taipei Deyi GO,"No. 116, Siwei Rd., Wugu Dist.",14,1
374,500209015,YouBike2.0_陸光國宅,16,9,五股區,20231118113914,25.08832,121.43232,民義路1段/民義路1段183巷口,Wugu Dist,YouBike2.0_Luguan Public Housing Complex,"Sec. 1, Minyi Rd./Ln. 183, Sec. 1, Minyi Rd., Wugu Dist.",7,1
375,500209016,YouBike2.0_成泰路一段(中油),16,6,五股區,20231118113914,25.07785,121.43555,成泰路一段194號(對面),Wugu Dist,"YouBike2.0_Sec. 1, Chengtai Rd. (CPC)","No.194, Sec. 1, Chengtai Rd., Wugu Dist.",10,1
376,500209017,YouBike2.0_新北市勞工活動中心,16,9,五股區,20231118113914,25.0615,121.451,五工六路9號(前廣場),Wugu Dist,YouBike2.0_New Taipei City Labor Activity Center,"No.9, Wugong 6th Rd., Wugu Dist.",7,1
377,500209018,YouBike2.0_御史路1巷,16,1,五股區,20231118113914,25.0904,121.442,御史路1巷5號(旁),Wugu Dist,"YouBike2.0_Ln. 1, Yushi Rd.","No.5, Ln. 1, Yushi Rd., Wugu Dist.",15,1
378,500209019,YouBike2.0_成泰路4段22巷,32,13,五股區,20231118113914,25.1083,121.456,成泰路4段22巷29號(對面),Wugu Dist,"YouBike2.0_Ln. 22, Sec. 4, Chengtai Rd.","No. 29, Ln. 22, Sec. 4, Chengtai Rd., Wugu Dist.(opposite)",19,1
379,500209020,YouBike2.0_五股郵局,25,4,五股區,20231118113914,25.10165,121.45098,凌雲路一段80巷9號(對面人行道),Wugu Dist,YouBike2.0_Wugu Post Office,"No. 9, Ln 80, Sec 1, Lingyun Rd, Wugu District",21,1
380,500209021,YouBike2.0_民義公園,16,4,五股區,20231118113914,25.08835,121.43453,五福路6巷口(五福橋旁公園),Wugu Dist,YouBike2.0_Minyi Park,"Ln. 6, Wufu Rd.",12,1
381,500209022,YouBike2.0_成功運動公園,14,5,五股區,20231118113914,25.09283,121.44472,西雲路116-2號(後方),Wugu Dist,YouBike2.0_Chenggong Sport Park,"No. 116-2, Xiyun Rd., Wugu Dist.",9,1
382,500209023,YouBike2.0_五工五五權路口,18,11,五股區,20231118113914,25.0665,121.4497,五工五路38號(對面),Wugu Dist,YouBike2.0_Wugong 5th & Wuquan Rd. Intersection,"No. 38, Wugong 5th Rd.(Opposite)",7,1
383,500209024,YouBike2.0_成州停車場,18,6,五股區,20231118113914,25.10013,121.44836,凌雲路一段149巷(成州停車場內),Wugu Dist,YouBike2.0_Chengzhou Parking Lot,"Ln.149, Sec.1, Lingyun Rd. (Chengzhou Parking Lot)",12,1
384,500209025,YouBike2.0_永安橋下停車場,14,2,五股區,20231118113914,25.07978,121.44905,中興路三段(永安橋下停車場內),Wugu Dist,YouBike2.0_Yong'an Bridge Parking Lot,"Sec.3, Zhongxing Rd. (Yong'an Bridge Parking Lot)",12,1
385,500209026,YouBike2.0_中興路二段37巷口,20,11,五股區,20231118113914,25.07540,121.46240,中興路二段35號(國道下),Wugu Dist,"YouBike2.0_Ln. 37, Sec. 2, Zhongxing Rd.","No. 35, Sec. 2, Zhongxing Rd. (Under the freeway)",9,1
386,500210001,YouBike2.0_名利橋,29,10,永和區,20231118113914,25.00785,121.50099,仁愛路352巷96號(對面廣場),Yonghe Dist,YouBike2.0_Minli Bridge,"No.96, Ln. 352, Ren’ai Rd.",19,1
387,500210002,YouBike2.0_保順環河西路口,59,19,永和區,20231118113914,25.01135,121.50285,保順路53號(對面),Yonghe Dist,YouBike2.0_Baoshun & Huanhe W. Intersection,"No. 53, Baoshun Rd.",40,1
388,500210003,YouBike2.0_永平高中,22,1,永和區,20231118113914,25.00979,121.50909,永平路/永平路203巷口(靠學校圍牆路側),Yonghe Dist,YouBike2.0_Yong-Ping High School,"Yongping Rd./Ln. 203, Yongping Rd.",21,1
389,500210004,YouBike2.0_仁愛公園,46,1,永和區,20231118113914,25.00952,121.50542,仁愛路287號(對面),Yonghe Dist,YouBike2.0_Renai Park,"No. 287, Renai Rd.",45,1
390,500210005,YouBike2.0_永和國小,23,2,永和區,20231118113914,25.00227,121.51744,中正路426號(對面),Yonghe Dist,YouBike2.0_Yonghe Elementary School,"No.426, Zhongzheng Rd. (Oppsite)",21,1
391,500210006,YouBike2.0_秀朗國小,36,3,永和區,20231118113914,24.99896,121.52278,民生路23號(對面),Yonghe Dist,YouBike2.0_Xiu Lang Elementary School,"No.23, Minsheng Rd. (Oppsite)",33,1
392,500210007,YouBike2.0_永和國民運動中心,26,2,永和區,20231118113914,25.00317,121.52407,永利路131號(對面人行道),Yonghe Dist,YouBike2.0_Yonghe Civil Sports Center,"No.131, Yongli Rd. (Oppsite)",24,1
393,500210008,YouBike2.0_福和國中停車場,26,1,永和區,20231118113914,25.00501,121.52267,永亨路99號(對向人行道),Yonghe Dist,YouBike2.0_Fuhe Junior High School Parking Lot,"No.99, Yongheng Rd. (Oppsite)",25,1
394,500210009,YouBike2.0_福和國中,63,2,永和區,20231118113914,25.00595,121.52093,永貞路/永亨路(東南側),Yonghe Dist,YouBike2.0_Fuhe Junior High School,Yongzhen Rd. / Yongheng Rd. Intersection,61,1
395,500210010,YouBike2.0_保安永平路口,25,0,永和區,20231118113914,25.01233,121.50604,保安路260號(對面),Yonghe Dist,YouBike2.0_Bao’an & Yongping Intersection,"No.260, Bao'an Rd. (opposite)",25,1
396,500210011,YouBike2.0_頂溪國小,34,2,永和區,20231118113914,25.01581,121.51126,文化路133號(西側),Yonghe Dist,YouBike2.0_Tinghsi Elementary School,"No.133, Wenhua Rd.",32,1
397,500210012,YouBike2.0_保平路214巷,16,1,永和區,20231118113914,25.00701,121.50921,永和區保平路214巷12弄12號(對面路側),Yonghe Dist,YouBike2.0_Baoping Ln 214,"No.12, Aly. 12, Ln. 214, Baoping Rd., Yonghe Dist.",15,1
398,500210013,YouBike2.0_環河西路一段95巷口,19,2,永和區,20231118113914,25.01783,121.51196,環河西路一段/環河西路一段95巷(人行道),Yonghe Dist,"YouBike2.0_Ln. 95, Sec. 1, Huanhe W. Rd.Intersection","Sec. 1, Huanhe W. Rd. / Ln. 95, Sec. 1, Huanhe W. Rd., Yonghe Dist.",17,1
399,500210014,YouBike2.0_忠孝活動中心,16,4,永和區,20231118113914,25.01677,121.51528,忠孝街26巷8號(前),Yonghe Dist,YouBike2.0_Zhongxiao Activity Center,"No.8, Ln. 26, Zhongxiao St., Yonghe Dist.",12,1
400,500210015,YouBike2.0_秀得里(成功路二段),20,6,永和區,20231118113914,25.00071,121.52673,成功路二段28號至34號,Yonghe Dist,YouBike2.0_Xiu de Village (Chenggong Rd. Sec. 2),"No.28 to No.34, Sec. 2, Chenggong Rd.",12,1
401,500210016,YouBike2.0_永和國父紀念館,20,1,永和區,20231118113914,25.00839,121.52023,永和區國光路9號(前人行道),Yonghe Dist,YouBike2.0_Yonghe-Sun Yat-Sen Memorial Hall,"No.9, Guoguang Rd., Yonghe Dist.",19,1
402,500210017,YouBike2.0_永和自由街,24,2,永和區,20231118113914,25.0052,121.51334,永和區 自由街69號(路側),Yonghe Dist,YouBike2.0_Yonghe Ziyou St.,"Ziyou St., Yonghe Dist.(oppsite)",22,1
403,500210018,YouBike2.0_民權社區活動中心,16,2,永和區,20231118113914,24.99778,121.51968,民權路60號(活動中心後方廣場),Yonghe Dist,YouBike2.0_Minquan Community Activity Center,"No. 60, Minquan Rd., Yonghe Dist.",14,1
404,500210019,YouBike2.0_中正橋,28,14,永和區,20231118113914,25.01776,121.51681,環河東路一段/光復街口,Yonghe Dist,YouBike2.0_Zhongzheng Bridge,"Sec. 1, Huanhe E. Rd./Guangfu St.",14,1
405,500210020,YouBike2.0_上林里(環河東路一段),32,0,永和區,20231118113914,25.015,121.52095,環河東路一段140號,Yonghe Dist,YouBike2.0_Shanglin Village (Huanhe E. Rd. Sec. 1 ),"Sec. 1, Huanhe E. Rd./Aly. 25, Ln. 75, Zhulin Rd.",32,1
406,500210021,YouBike2.0_福和路7巷口,25,1,永和區,20231118113914,25.00854,121.52473,福和路11號,Yonghe Dist,"YouBike2.0_Ln. 7, Fuhe Rd.","No.11, Fuhe Rd., Yonghe Dist.",17,1
407,500210022,YouBike2.0_福和橋,31,11,永和區,20231118113914,25.00454,121.52785,環河東路三段90號,Yonghe Dist,YouBike2.0_Fuhe Bridge,"No.90, Sec. 3, Huanhe E. Rd., Yonghe Dist.",20,1
408,500210023,YouBike2.0_雙和橋,29,0,永和區,20231118113914,25.00573,121.50574,中山路二段3巷2號(對面公園),Yonghe Dist,YouBike2.0_Shuanghe Bridge,"No.2, Ln. 3, Sec. 2, Zhongshan Rd.(Opposite)",29,1
409,500210024,YouBike2.0_捷運頂溪站(2號出口),15,10,永和區,20231118113914,25.01424,121.51549,永和路二段,Yonghe Dist,YouBike2.0_MRT Ding Sta(exit 2),"Sec. 2, Yonghe Rd. & Ln. 231, Sec. 2, Yonghe Rd. (Southwest)",0,1
410,500210025,YouBike2.0_永和耕莘醫院,22,14,永和區,20231118113914,25.01123,121.5177,國光路123號 ( 耕莘醫院外路側汽機車格位 ),Yonghe Dist,YouBike2.0_Yonghe Cardinal Tien Hospital,"No.123, Guoguang Rd.",8,1
411,500210026,YouBike2.0_環河民樂街59巷26弄口,15,10,永和區,20231118113914,24.99798,121.52844,環河東路四段/民樂街59巷26弄口(西北側),Yonghe Dist,"YouBike2.0_Huanh Alley 26, Lane 59, Minyue St.","Section 4, Huanhe East Rd. Alley 26, Lane 59, Minyue St. (Northwest)",2,1
412,500210027,YouBike2.0_仁愛公園(仁愛路),15,1,永和區,20231118113914,25.01138,121.50796,永平路274號(對面),Yonghe Dist,YouBike2.0_Ren Ai Park (Ren Ai Rd.),"No. 274, Yongping Rd.(Front)",14,1
413,500210028,YouBike2.0_永福橋,37,12,永和區,20231118113914,25.01003,121.52418,豫溪街217巷29號,Yonghe Dist,YouBike2.0_Yongfu Bridge,"No.29, Ln. 217, Yuxi St.",25,1
414,500210029,YouBike2.0_保平永和路一段口,15,1,永和區,20231118113914,25.00746,121.5134,永和路一段85號前(北側),Yonghe Dist,"YouBike2.0_Baoping Sec 1, Yonghe Rd.Intersection","No. 85, Sec 1, Yonghe Rd.(North)",14,1
415,500210030,YouBike2.0_福和自強街28巷口,12,3,永和區,20231118113914,25.00725,121.51572,福和路320號(前),Yonghe Dist,"YouBike2.0_Fuhe & Ln. 28, Ziqiang St. Intersection","No. 320, Fuhe Rd.",9,1
416,500210031,YouBike2.0_永和國中(國中路),15,4,永和區,20231118113914,25.00674,121.52269,國中路156號(對面),Yonghe Dist,YouBike2.0_Yonghe Junior High School(Guozhong Rd.),"No. 156, Guozhong Rd.",11,1
417,500210032,YouBike2.0_中正路666巷口,10,0,永和區,20231118113914,25.00913,121.51917,國光路12巷/中正路666巷(東北側),Yonghe Dist,"YouBike2.0_Ln. 666, Zhongzheng Rd.","Ln. 12, Guoguang Rd. & Ln. 666, Zhongzheng Rd(Northeast)",10,1
418,500210033,YouBike2.0_永貞水源街口,12,1,永和區,20231118113914,25.00492,121.5117,永貞路312號(前),Yonghe Dist,YouBike2.0_Yongzheng Shuiyuan St. Intersection,"No. 312, Yongzhen Rd.",11,1
419,500210034,YouBike2.0_永和區公所公有新生市場,12,0,永和區,20231118113914,25.01402,121.50704,新生路193巷1號(前),Yonghe Dist,YouBike2.0_Yonghe Xinsheng Market,"No. 1, Ln. 193, Xinsheng Rd.",12,0
420,500210035,YouBike2.0_保安保福路二段口,14,2,永和區,20231118113914,25.01497,121.5087,保安路75號(前),Yonghe Dist,"YouBike2.0_Bao'an & Sec. 2, Bao'fu Rd. Intersection","No. 75, Bao'an Rd.",12,1
421,500210036,YouBike2.0_保福保福路二段133巷口,14,2,永和區,20231118113914,25.01422,121.5097,保福路二段128號(前),Yonghe Dist,"YouBike2.0_Bao'fu & Ln. 133, Sec. 2, Bao'fu Rd. Intersection","No. 128, Sec. 2, Bao'fu Rd.",11,1
422,500210037,YouBike2.0_仁愛信義路口,20,4,永和區,20231118113914,25.01329,121.51269,仁愛路97號(前),Yonghe Dist,YouBike2.0_Ren'ai Xinyi Rd. Intersection,"No. 97, Ren'ai Rd.",16,1
423,500210038,YouBike2.0_永和勵行街口,10,8,永和區,20231118113914,25.01455,121.51583,永和路二段242號(旁人行道),Yonghe Dist,YouBike2.0_Yonghe Lixing St. Intersection,"No. 242, Sec. 2, Yonghe Rd.",0,1
424,500210039,YouBike2.0_仁愛路306巷18弄口,13,0,永和區,20231118113914,25.00888,121.50303,仁愛路306巷18弄3號,Yonghe Dist,"YouBike2.0_Aly. 18, Ln. 306, Ren'ai Rd. Intersection","No. 3, Aly. 18, Ln. 306, Ren'ai Rd.",13,1
425,500210040,YouBike2.0_瓦磘截流站,11,4,永和區,20231118113914,25.009,121.49972,環河西路二段249號,Yonghe Dist,YouBike2.0_Wayao Interception & Pumping Plant,"No. 249, Sec. 2, Huanhe W. Rd.",7,1
426,500210041,YouBike2.0_永成市民活動中心,12,1,永和區,20231118113914,25.0173,121.5101,環河西路二段5號,Yonghe Dist,YouBike2.0_Yongzheng Civic Activity Center,"No. 5, Sec. 2, Huanhe W. Rd.",11,1
427,500210042,YouBike2.0_秀朗路二段24巷16弄24號,14,10,永和區,20231118113914,25.00239,121.52007,秀朗路二段24巷16弄24號,Yonghe Dist,"YouBike2.0_No. 24, Aly. 16, Ln. 24, Sec. 2, Xiulang Rd.","No. 24, Aly. 16, Ln. 24, Sec. 2, Xiulang Rd.",4,1
428,500210043,YouBike2.0_中正橋(環河西路一段),24,0,永和區,20231118113914,25.01803,121.51553,環河西路一段/永和路二段425巷(東南側),Yonghe Dist,"YouBike2.0_Zhongzheng Birdge(Sec. 1, Huanhe W. Rd.)","Sec. 1, Huanhe W. Rd. & Ln. 425, Sec. 2, Yonghe Rd.(Southeast)",24,1
429,500210044,YouBike2.0_仁愛路40巷口,14,10,永和區,20231118113914,25.01346,121.51416,仁愛路46號(前),Yonghe Dist,"YouBike2.0_Ln. 40, Ren'ai Rd. Intersection","No. 46, Ren'ai Rd.",3,1
430,500210045,YouBike2.0_捷運頂溪站(復興街1巷),15,5,永和區,20231118113914,25.0131,121.51544,永和路二段168號(旁),Yonghe Dist,"YouBike2.0_MRT Dingxi Sta.(Ln. 1, Fuxing St.)","No. 168, Sec. 2, Yonghe Rd.",3,1
431,500210046,YouBike2.0_捷運頂溪站(中興街),27,14,永和區,20231118113914,25.01223,121.51526,中興街1號(前),Yonghe Dist,YouBike2.0_MRT Dingxi Sta.(Zhongxing St.),"No. 1, Zhongxing St.",13,0
432,500210047,YouBike2.0_頂溪國小地下停車場,13,0,永和區,20231118113914,25.01452,121.51057,文化路135巷64號(旁),Yonghe Dist,YouBike2.0_Dingxi Elementary School Parking,"No. 64, Ln. 135, Wenhua Rd.",13,1
433,500210048,YouBike2.0_中山路一段17巷口,11,0,永和區,20231118113914,25.01039,121.51375,中山路一段19號(旁),Yonghe Dist,"YouBike2.0_Ln. 17, Sec. 1, Zhongshan Rd.Intersection","No. 19, Sec. 1, Zhongshan Rd.",11,1
434,500210049,YouBike2.0_中信停車場(中興街),17,4,永和區,20231118113914,25.01228,121.51864,中興街88號,Yonghe Dist,YouBike2.0_Zhongxin Parking Lot(Zhongxing St.),"No. 88, Zhongxing St.",13,1
435,500210050,YouBike2.0_雙和公園,11,8,永和區,20231118113914,25.00229,121.50883,雙和街37巷4號(旁),Yonghe Dist,YouBike2.0_Shuanghe Park,"No.4, Ln.37, Shuanghe St. (Side)",3,1
436,500210051,YouBike2.0_中正路465巷,17,0,永和區,20231118113914,25.00587,121.51591,中正路465巷36號(前),Yonghe Dist,"YouBike2.0_Ln.465, Zhongzheng Rd.","No.36, Ln.465, Zhongzheng Rd. (front)",17,1
437,500210052,YouBike2.0_環河西路二段217巷口,17,16,永和區,20231118113914,25.01016,121.50109,環河西路二段221號(前),Yonghe Dist,"YouBike2.0_Ln. 217, Sec. 2, Huanhe W. Rd. Intersection","No. 221, Sec. 2, Huanhe W. Rd. (Front)",1,1
438,500210053,YouBike2.0_保平路268巷,13,2,永和區,20231118113914,25.00532,121.50857,保平路236巷1弄15號(旁),Yonghe Dist,"YouBike2.0_Ln. 268, Baoping Rd.","No. 15, Aly. 1, Ln. 236, Baoping Rd. (Side)",11,1
439,500211001,YouBike2.0_白沙灣,56,20,石門區,20231118113914,25.28549,121.52209,下員坑33-6號(停車場),Shimen Dist,YouBike2.0_Baisha Bay,"No. 33-5, Xiayuankeng (Parking)",36,1
440,500212001,YouBike2.0_烏塗窟聚福宮,15,5,石碇區,20231118113914,24.97551,121.6562,烏塗里1-1號與碇格路二段口,Shiding Dist,YouBike2.0_Wutu Grottoes Jufu Temple,Wutu Village No. 1-1,10,1
441,500212002,YouBike2.0_淡蘭吊橋,14,11,石碇區,20231118113914,25.0057,121.65159,碇坪路一段18號南側(雙溪口第一停車場內),Shiding Dist,YouBike2.0_Dan Lan Suspension Bridge,"No. 18, Sec. 1, Dingping Rd.(South)",3,1
442,500214001,YouBike2.0_東勢宜興活動中心,33,3,汐止區,20231118113914,25.03881,121.62429,東勢街15-1號西南側,Xizhi Dist,YouBike2.0_Yixing Dongshi Activity Center,"No. 15-1, Dongshi St. (Southwest)",30,1
443,500214002,YouBike2.0_工建樟樹一路口,34,10,汐止區,20231118113914,25.06319,121.64112,工建路50號南側,Xizhi Dist,YouBike2.0_Gongjian Rd. & Zhangshu 1st Rd. Intersection,"No. 50, Gongjian Rd. (South)",24,1
444,500214003,YouBike2.0_樟樹國小,45,16,汐止區,20231118113914,25.06693,121.64039,樟樹二路137號東側,Xizhi Dist,YouBike2.0_Zhangshu Elementary School,"No. 137, Zhangshu 2nd Rd. (East)",29,1
445,500214004,YouBike2.0_台灣科學園區,24,14,汐止區,20231118113914,25.05793,121.63496,大同路一段237號,Xizhi Dist,YouBike2.0_Taiwan Science Park,"No. 237, Sec. 1, Datong Rd.",10,1
446,500214005,YouBike2.0_雍和科學園區,33,9,汐止區,20231118113914,25.05808,121.62602,南陽街209號,Xizhi Dist,YouBike2.0_Yonghe Science Park,"No. 209, Nanyang St.",24,1
447,500214006,YouBike2.0_汐科火車站(南),45,34,汐止區,20231118113914,25.06274482486429,121.64684226184235,大同路二段182號東側,Xizhi Dist,YouBike2.0_Xike Railway Station(South),"No.182, Sec. 2, Datong Rd.",11,1
448,500214007,YouBike2.0_原興廣場,47,32,汐止區,20231118113914,25.06507,121.63304,中興路150巷12號西南側,Xizhi Dist,YouBike2.0_Yuan Xing Square,"No.12, Ln. 150, Zhongxing Rd.",15,1
449,500214008,YouBike2.0_東方科學園區,33,10,汐止區,20231118113914,25.06126,121.64951,新台五路一段114號,Xizhi Dist,YouBike2.0_Oriental Science Park,"No.114, Sec. 1, Xintai 5th Rd.",23,1
450,500214009,YouBike2.0_汐科火車站(北),60,22,汐止區,20231118113914,25.06426,121.65294,大同路二段197號南側,Xizhi Dist,YouBike2.0_Xike Railway Station(North),"No.197,Sec. 2, Datong Rd.",38,1
451,500214010,YouBike2.0_青山國民中小學,24,9,汐止區,20231118113914,25.06103,121.65559,莊敬街84-1號南側,Xizhi Dist,YouBike2.0_Qingshan Elementary and Junior High School,"No.84-1, Zhuangjing St.",15,1
452,500214011,YouBike2.0_白雲國小,43,19,汐止區,20231118113914,25.04758,121.61889,民權街二段90號,Xizhi Dist,YouBike2.0_Jinlong Elementary School,"No.90, Sec. 2, Minquan St.",24,1
453,500214012,YouBike2.0_文化白雲公園,23,9,汐止區,20231118113914,25.05688,121.65521,水源路二段42號,Xizhi Dist,YouBike2.0_Wenhua-Baiyun Park,"No.42 to No.68, Sec. 2, Shuiyuan Rd.",14,1
454,500214013,YouBike2.0_連興龍安路口,42,19,汐止區,20231118113914,25.06299,121.65443,連興路/龍安路28巷,Xizhi Dist,YouBike2.0_lianxing,lianxing,23,1
455,500214014,YouBike2.0_南興公園,28,9,汐止區,20231118113914,25.05978,121.65255,南興路62號旁(南興公園內),Xizhi Dist,YouBike2.0_Nanxing Park,"No.62, Nanxing Rd.",19,1
456,500214015,YouBike2.0_民族二街明峰街口,22,11,汐止區,20231118113914,25.07105,121.63502,明峰街13號(右側路側),Xizhi Dist,YouBike2.0_Minzu 2nd & Mingfeng Intersection,"No.13, Mingfeng St., Xizhi Dist.",11,1
457,500214016,YouBike2.0_康福公園,18,13,汐止區,20231118113914,25.06894,121.63748,福德一路86巷23號(旁),Xizhi Dist,YouBike2.0_Kangfu Park,"No. 86, Fude 1st Rd., Xizhi Dist.",5,1
458,500214017,YouBike2.0_汐止火車站,34,12,汐止區,20231118113914,25.06891,121.66275,南昌街/新昌路口(西側廣場),Xizhi Dist,YouBike2.0_Xizhi Railway Station,Nanchang St./Xinchang Rd.,22,1
459,500214018,YouBike2.0_橋東里(忠孝東路),20,7,汐止區,20231118113914,25.07368,121.66626,忠孝東路484號至488號前,Xizhi Dist,"YouBike2.0_Qiaodong Village (Zhongxiao E. Rd.)  ""","No.484 to No.488, Zhongxiao E. Rd.",13,1
460,500214019,YouBike2.0_崇德橋東活動中心,20,10,汐止區,20231118113914,25.07051,121.667,茄苳路84號(崇德橋東里民活動中心前),Xizhi Dist,YouBike2.0_Chungde-Ciaodong Activity Center,"No.84, Jiadong Rd.",10,1
461,500214020,YouBike2.0_世貿國家公園社區,17,13,汐止區,20231118113914,25.07289,121.65865,長江路101號(對面),Xizhi Dist,YouBike2.0_Shi Mao National Park Community,"No.101, Changjiang St., Xizhi Dist.",4,1
462,500214021,YouBike2.0_蘭庭序大廈,14,4,汐止區,20231118113914,25.07207,121.65207,汐萬路一段201號前,Xizhi Dist,YouBike2.0_Lantingji Xu Community,"No.201, Sec. 1, Xiwan Rd., Xizhi Dist.",10,1
463,500214022,YouBike2.0_國泰綜合醫院,28,18,汐止區,20231118113914,25.07315,121.66256,建成路78號南側,Xizhi Dist,YouBike2.0_Cathay General Hospital,"No78, Jiancheng Rd",10,1
464,500214023,YouBike2.0_北港國小,20,2,汐止區,20231118113914,25.08903,121.64595,汐萬路二段279號,Xizhi Dist,YouBike2.0_Beigang Elementary School,"No.279, Sec. 2, Xiwan Rd.",18,1
465,500214024,YouBike2.0_康寧街307巷,28,14,汐止區,20231118113914,25.06809,121.62697,明峰街281號東側,Xizhi Dist,"YouBike2.0_Ln. 307, Kangning St.","No. 281, Mingfeng St., Xizhi Dist.(East)",14,1
466,500214025,YouBike2.0_忠山市民活動中心,38,19,汐止區,20231118113914,25.0782,121.62449,忠三街8號,Xizhi Dist,YouBike2.0_Jhongshan Civil Activity Center,"No.8, Zhong 3rd St.",19,1
467,500214026,YouBike2.0_汐止公園,10,0,汐止區,20231118113914,25.06781,121.65964,大同路二段447號東側,Xizhi Dist,YouBike2.0_Xizhi Park,"No.451, Sec. 2, Datong Rd.",10,0
468,500214027,YouBike2.0_汐止火車站停車場,52,24,汐止區,20231118113914,25.06795,121.66168,忠孝東路211巷28號,Xizhi Dist,YouBike2.0_Xizhi Railway Station Parking Lot,"No. 1, Xinyi Rd., Xizhi Dist.",20,1
469,500214028,YouBike2.0_崇德國小,27,8,汐止區,20231118113914,25.06938,121.66979,茄苳路158號,Xizhi Dist,YouBike2.0_Chongde Elementary School,"No.158, Jiadong Rd., Xizhi Dist.",19,1
470,500214029,YouBike2.0_保長公園,22,6,汐止區,20231118113914,25.07952,121.67434,保一街79號西南側,Xizhi Dist,YouBike2.0_Baochang Park,"No. 70, Bao1. St.(Southwest)",16,1
471,500214030,YouBike2.0_長安橋(吉祥街12巷),43,9,汐止區,20231118113914,25.08033,121.66846,吉祥街8號南側,Xizhi Dist,"YouBike2.0_Chang An Bridge (Ln. 12, Jixiang St.)","No. 8, Jixiang St., Xizhi Dist.(South)",34,1
472,500214031,YouBike2.0_金龍國小,30,1,汐止區,20231118113914,25.06943,121.6284,中興路282號西側,Xizhi Dist,YouBike2.0_Jinlong Elementary School,"No.282, Zhongxing Rd. (West)",29,1
473,500214032,YouBike2.0_汐止區綜合運動場,29,13,汐止區,20231118113914,25.06624,121.65907,忠孝東路9號東北側,Xizhi Dist,YouBike2.0_Xizhi Sports Field,"No.9, Zhongxiao E. Rd.(Northeast)",16,1
474,500214033,YouBike2.0_金龍公園,38,25,汐止區,20231118113914,25.06947,121.63153,康寧街469巷19號東側,Xizhi Dist,YouBike2.0_Jinlong Park,"No.19, Ln.469, Kangning St.(East)",13,1
475,500214034,YouBike2.0_五堵火車站,42,25,汐止區,20231118113914,25.07823,121.66764,長安路17號(鄉長路一段),Xizhi Dist,YouBike2.0_Wudu Railway Station,"No.17, Chang'an Rd.(Sec. 1, Xiangzhang Rd.)",17,1
476,500214035,YouBike2.0_汐止區公所,27,10,汐止區,20231118113914,25.06416,121.6583,新台五路一段262號,Xizhi Dist,YouBike2.0_Xizhi Dist. Office,"No.262, Sec. 1, Xintaiwu Rd.",17,1
477,500214036,YouBike2.0_仁愛路151巷口,29,4,汐止區,20231118113914,25.0652,121.6641,仁愛路163號,Xizhi Dist,YouBike2.0_Ren Ai Rd 151 Ln,"No.163, Ren’ai Rd., Xizhi Dist.",25,1
478,500214037,YouBike2.0_福德一路201巷口(福德ONE社區),22,4,汐止區,20231118113914,25.06575,121.6351,福德一路205號(對面),Xizhi Dist,"YouBike2.0_Ln. 201, Fude 1st Rd.","No. 205, Fude 1st Rd. (Opposite)",18,1
479,500214038,YouBike2.0_矽谷園區,24,11,汐止區,20231118113914,25.06227,121.63447,中興路45-1號(旁),Xizhi Dist,YouBike2.0_Silicon Valley Park,"No. 45-1, Zhongxing Rd.",13,1
480,500214039,YouBike2.0_康寧街141巷口,15,1,汐止區,20231118113914,25.06833,121.61988,康寧街141巷口(堤防邊),Xizhi Dist,"YouBike2.0_Ln. 141, Kangning St.","Ln. 141, Kangning St.",14,1
481,500214040,YouBike2.0_伯爵山莊第二期(康寧街),15,2,汐止區,20231118113914,25.07299,121.6384,康寧街749號南側,Xizhi Dist,YouBike2.0_Earl's Villa Phase II (Corning Street),"No. 749, Kangning St.(South)",13,1
482,500214041,YouBike2.0_啟德橋(招商街),19,4,汐止區,20231118113914,25.06786,121.66801,招商街/啟德橋(東南側),Xizhi Dist,YouBike2.0_Qide Bridge,Zhaoshang St. & Qide Bridge(Southeast),15,1
483,500214042,YouBike2.0_樟江大橋,13,7,汐止區,20231118113914,25.07578,121.64481,翠峰街2巷2號西南側,Xizhi Dist,YouBike2.0_Zhangjiang Bridge,"No. 2, Ln. 2, Cuifeng St.(Southwest)",6,1
484,500214043,YouBike2.0_秀峰高中(忠孝東路),16,5,汐止區,20231118113914,25.06635,121.66172,忠孝東路202號北側,Xizhi Dist,YouBike2.0_Xiufeng High School(Zhongxiao E. Rd.),"No. 202, Zhongxiao E. Rd.(North)",11,1
485,500214044,YouBike2.0_台練橋,14,6,汐止區,20231118113914,25.07201,121.66270,和平街46巷26號北側,Xizhi Dist,YouBike2.0_Tailian Bridge,"No. 26, Ln. 46, Heping St.(North)",8,1
486,500214045,YouBike2.0_樟樹一山光路口,15,8,汐止區,20231118113914,25.070296258183784,121.64286319301775,樟樹二路330巷32號東側,Xizhi Dist,YouBike2.0_Zhangshu 1st. & Shanguang Rd. Intersection,"No. 32, Ln. 330, Zhangshu 2nd Rd.(East)",7,1
487,500214046,YouBike2.0_汐止國民運動中心,12,6,汐止區,20231118113914,25.06538,121.65693,汐科路321號,Xizhi Dist,YouBike2.0_Xizhi Civil Sports Center,"No. 321, Xike Rd.",6,1
488,500214048,YouBike2.0_中興福德三路口,10,5,汐止區,20231118113914,25.06641,121.63077,中興路177號,Xizhi Dist,YouBike2.0_Zhongxing Fude 3rd Rd. Intersection,"No. 177, Zhongxing Rd.",5,1
489,500214049,YouBike2.0_建成路142巷口,18,13,汐止區,20231118113914,25.07335,121.66255,建成路142巷5號東側,Xizhi Dist,"YouBike2.0_Ln. 142, Jiancheng Rd. Intersection","No. 5, Ln. 142, Jiancheng Rd.(East)",5,1
490,500214050,YouBike2.0_福德二路19巷口,12,2,汐止區,20231118113914,25.06841,121.63533,福德二路21號北側,Xizhi Dist,"YouBike2.0_Ln. 19, Fude 2nd Rd. Intersection","No. 21, Fude 2nd Rd.(North)",10,1
491,500214051,YouBike2.0_中興工建路口,20,6,汐止區,20231118113914,25.06128,121.63535,中興路60號西側,Xizhi Dist,YouBike2.0_Zhongxing Gongjian Rd. Intersection,"No. 60, Zhongxing Rd.(West)",14,1
492,500214052,YouBike2.0_長興橋,15,6,汐止區,20231118113914,25.08055,121.67187,長興街二段2巷1號北側,Xizhi Dist,YouBike2.0_Changxing Bridge,"No. 1, Ln. 2, Sec. 2, Changxing St.(North)",9,1
493,500214053,YouBike2.0_五堵車站(長安路),13,8,汐止區,20231118113914,25.07813,121.66821,長安路40號,Xizhi Dist,YouBike2.0_Wudu Sta.(Chang'an Rd.),No. 40 Chang'an Rd.,5,1
494,500214054,YouBike2.0_大同建成路口,30,11,汐止區,20231118113914,25.07258,121.66558,忠孝東路455號(西側高架橋下),Xizhi Dist,YouBike2.0_DatongJiancheng Rd. Intersection,"No. 455, Zhongxiao E. Rd., Xizhi Dist.(Under the viaduct)",19,1
495,500214055,YouBike2.0_茄苳茄福街口,15,1,汐止區,20231118113914,25.06723,121.673,茄苳路296號,Xizhi Dist,YouBike2.0_Jiadong Jiafu St. Intersection,"No. 296, Jiadong Rd.",14,1
496,500214056,YouBike2.0_春之霖社區,11,7,汐止區,20231118113914,25.0794,121.6625,長江街238-2號,Xizhi Dist,YouBike2.0_Chunzhilin Community,"No. 238-2, Changjiang St.",4,1
497,500214057,YouBike2.0_五堵橋下籃球場,17,5,汐止區,20231118113914,25.07553,121.66558,鄉長路一段45號東北側,Xizhi Dist,YouBike2.0_Wudu bridge Basketball court,"No. 45, Sec. 1, Xiangzhang Rd.",12,1
498,500214058,YouBike2.0_建成段平面停車場,15,1,汐止區,20231118113914,25.07336,121.66542,大同路二段713號東北側,Xizhi Dist,YouBike2.0_Jianchengduan Parking Lot,"No. 713, Sec. 2, Datong Rd. (northeast)",14,1
499,500214059,YouBike2.0_汐止國民運動中心游泳池(忠孝東路),12,1,汐止區,20231118113914,25.06416,121.65726,忠孝東路9號,Xizhi Dist,YouBike2.0_Xizhi Civil Activity Center Swimming Pool (Zhongxiao E. Rd.),"No. 9, Zhongxiao Rd.",11,1
500,500214060,YouBike2.0_樟樹國小(樟樹一路145巷口),20,13,汐止區,20231118113914,25.06735,121.64240,樟樹一路258號西側,Xizhi Dist,"YouBike2.0_Zhangshu Elementary School (Ln.145, Zhangshu 1st Rd.)","No. 258, Zhangshu Rd. (West)",7,1
501,500214062,YouBike2.0_秀峰國小(仁愛路106巷),16,11,汐止區,20231118113914,25.06266,121.66294,仁愛路106巷32號西側,Xizhi Dist,"YouBike2.0_Xiufeng Elementary School (Ln. 106, Ren'ai Rd.)","No.32, Ln.106, Ren'ai Rd (West)",5,1
502,500214063,YouBike2.0_汐止區農會附設老人活動中心,16,2,汐止區,20231118113914,25.09705,121.64241,汐萬路三段246號,Xizhi Dist,YouBike2.0_The Elderly Activity Center attached to Xizhi District Farmers Association,"No. 246, Sec. 3, Xiwan Rd.",14,1
503,500214064,YouBike2.0_長興街二段62號,13,1,汐止區,20231118113914,25.08192,121.67449,長興街二段62號(前),Xizhi Dist,"YouBike2.0_No. 62, Sec. 2, Changxing St.","No. 62, Sec. 2, Changxing St. (Front)",12,1
504,500214065,YouBike2.0_水返腳公園,28,14,汐止區,20231118113914,25.06813,121.65901,公園路10號(對面),Xizhi Dist,YouBike2.0_Shuifanjiao Park,"No. 10, Gongyuan Rd. (Opposite)",14,1
505,500215001,YouBike2.0_臺大醫院金山分院,16,8,金山區,20231118113914,25.21974,121.62916,玉爐路7號(旁),Jinshan Dist,YouBike2.0_NTU Hospital Jinshan Branch,"No.7, Yulu Rd.",8,1
506,500215002,YouBike2.0_中山環金路口,30,7,金山區,20231118113914,25.21794,121.6414,中山路/環金路口,Jinshan Dist,YouBike2.0_Zhongshan & Huanjin Intersection,Zhongshan Rd. & Huanjin Rd. Intersection,23,1
507,500215003,YouBike2.0_金美國小,20,0,金山區,20231118113914,25.21973,121.63633,仁愛路37-5號(對面),Jinshan Dist,YouBike2.0_Jinmei Elementary School,"No. 37-5, Ren’ai Rd., Jinshan Dist.(opposite)",20,1
508,500215004,YouBike2.0_金山八德街,24,16,金山區,20231118113914,25.22365,121.63469,八德街24號(對面),Jinshan Dist,YouBike2.0_Jinshan Bade St.,"No. 24, Bade St., Jinshan Dist.(opposite)",8,1
509,500215005,YouBike2.0_中角灣,28,4,金山區,20231118113914,25.239,121.63234,海興路174-1號(旁),Jinshan Dist,YouBike2.0_Jhongjiao Bay,"No. 174-1, Haixing Rd., Jinshan Dist.",24,1
510,500215006,YouBike2.0_中山溫泉公園,30,2,金山區,20231118113914,25.22108,121.64177,民生路204號(旁),Jinshan Dist,YouBike2.0_Zhongshan Spring Park,"No. 204, Minsheng Rd.",28,1
511,500215007,YouBike2.0_金山立體停車場(中興路),15,6,金山區,20231118113914,25.22043,121.64169,民生路53號南側,Jinshan Dist,YouBike2.0_Jinshan Parking Lot(Zhongxing Rd),"No. 53, Minsheng Rd.(South)",9,1
512,500216001,YouBike2.0_捷運林口站(1號出口),34,19,林口區,20231118113914,25.06599,121.36251,八德路209號旁,Linkou Dist,YouBike2.0_MRT Linkou Sta. (Exit.1),"No. 209, Bade Rd.",15,1
513,500216002,YouBike2.0_新林國小,24,0,林口區,20231118113914,25.07079,121.3595,忠孝三路/文明街口,Linkou Dist,YouBike2.0_Xinlin Elementary School,Zhongxiao 3rd. Rd & Wenming St. Intersection,24,1
514,500216003,YouBike2.0_立言公園,17,14,林口區,20231118113914,25.07324,121.36281,三民路/忠孝一路口,Linkou Dist,YouBike2.0_Liyan Park,Zhongxiao 1st Rd. & Sanmin Rd. Intersection,3,1
515,500216004,YouBike2.0_南勢市民活動中心,20,4,林口區,20231118113914,25.07393,121.35914,南勢二街154號,Linkou Dist,YouBike2.0_Nanshih Civil Activity Center,"No.154, Nanshi 2nd St.(Side)",14,1
516,500216005,YouBike2.0_立德公園,18,0,林口區,20231118113914,25.07639,121.36762,仁愛二路/民族路口東北側,Linkou Dist,YouBike2.0_Lide Park,Ren’ai 2nd Rd./ Minzu Rd. Intersection(Northeast),18,1
517,500216006,YouBike2.0_扶輪公園,19,7,林口區,20231118113914,25.07298,121.36932,文化二路一段309巷1號(東南側),Linkou Dist,YouBike2.0_Fulun Park,"No. 1, Ln. 309, Sec. 1, Wenhua 2nd Rd.(Southeast)",12,1
518,500216007,YouBike2.0_廣停二停車場,15,0,林口區,20231118113914,25.0755,121.37045,民富街99號對側,Linkou Dist,YouBike2.0_Guangting Sec. Parking Lot,"No.99, Minfu St., Linkou Dist.(Opposite)",15,1
519,500216008,YouBike2.0_三井Outlet,29,20,林口區,20231118113914,25.07158,121.36629,文化二路一段241巷26號(對側),Linkou Dist,YouBike2.0_MITSUI OUTLET PARK,"No. 26, Ln. 241, Sec. 1, Wenhua 2nd Rd., Linkou Dist.",9,1
520,500216009,YouBike2.0_新北市林口行政園區,28,13,林口區,20231118113914,25.07,121.36394,忠孝二路55號旁,Linkou Dist,YouBike2.0_New TaipeiCity Linkou Administrative Park,"No.55, Zhongxiao 2nd Rd., Linkou Dist.",15,1
521,500216010,YouBike2.0_國立師範大學林口校區,29,8,林口區,20231118113914,25.06804,121.39795,仁愛路1段2號(校門前自行車停車區),Linkou Dist,YouBike2.0_NTNU-Linkou Campus,"No. 2, Sec. 1, Ren'ai Rd.",21,1
522,500216011,YouBike2.0_林口老街,17,6,林口區,20231118113914,25.07715,121.39378,林口區中正路115號(東側停車場),Linkou Dist,YouBike2.0_Linkou Old Street,"No. 115, Zhongzheng Rd., Linkou Dist.",11,1
523,500216012,YouBike2.0_竹林山觀音寺,16,14,林口區,20231118113914,25.08452,121.38983,竹林路/竹林路421巷口,Linkou Dist,YouBike2.0_Zhulinshan Guanyin Temple,"Zhulin Rd./Ln. 421, Zhulin Rd., Linkou Dist.",2,1
524,500216013,YouBike2.0_林口高中,11,2,林口區,20231118113914,25.07384,121.3803,仁愛路二段173號(對面),Linkou Dist,YouBike2.0_Linkou Senior High School,"No.173, Sec. 2, Ren’ai Rd",9,1
525,500216014,YouBike2.0_林口國民運動中心,27,5,林口區,20231118113914,25.08601,121.38093,文化二路二段299號,Linkou Dist,YouBike2.0_Linkou Civil Sports Center,"No. 299, Sec. 2, Wenhua 2nd Rd., Linkou Dist.",22,1
526,500216015,YouBike2.0_富貴森林公園,24,19,林口區,20231118113914,25.08296,121.37831,富貴路85號,Linkou Dist,YouBike2.0_Fugui Park,"No. 85, Fugui Rd.",5,1
527,500216016,YouBike2.0_湖南市民活動中心,15,4,林口區,20231118113914,25.08428,121.37432,民權路165號,Linkou Dist,YouBike2.0_Hunan Civil Activity Center,"No. 165, Minquan Rd., Linkou Dist.",11,1
528,500216017,YouBike2.0_頭湖國小,22,14,林口區,20231118113914,25.08167,121.37268,民權路72號對側,Linkou Dist,YouBike2.0_Touhou Elementary School,"No.72, Minquan Rd.(Opposite)",7,1
529,500216018,YouBike2.0_民視數位媒體總部,25,6,林口區,20231118113914,25.07987,121.37925,信義路99號,Linkou Dist,YouBike2.0_FTV Digital Media Headquarter,"No.99, Xinyi Rd., Linkou Dist.",19,1
530,500216019,YouBike2.0_仁愛文化二路口,27,8,林口區,20231118113914,25.07770,121.37354,仁愛路二段516號,Linkou Dist,YouBike2.0_Ren-ai & Wenhua 2nd Rd. Intersection,"No.516, Sec. 2, Ren’ai Rd.",19,1
531,500216020,YouBike2.0_林口新創園,16,3,林口區,20231118113914,25.07583,121.37609,仁愛路二段496號,Linkou Dist,YouBike2.0_Starup Terrace,"No. 496, Sec. 2, Ren’ai Rd., Linkou Dist.",12,1
532,500216021,YouBike2.0_林口郵局,13,0,林口區,20231118113914,25.06667,121.36453,文化二路一段8號,Linkou Dist,YouBike2.0_Linkou Post Office,"No. 8, Sec. 1, Wenhua 1st Rd., Linkou Dist.",13,1
533,500216022,YouBike2.0_新麗園社區,20,14,林口區,20231118113914,25.07005,121.37691,麗園一街與麗園路口,Linkou Dist,YouBike2.0_Xinliyuan Community,Liyuan 1st St. & Liyuan Rd. intersection,6,1
534,500216023,YouBike2.0_林口社區運動公園,20,8,林口區,20231118113914,25.07411,121.37694,文化一路一段/仁愛路二段路口,Linkou Dist,YouBike2.0_Linkou Community Sports Park,"Sec. 1, Wenhua 1st Rd./Sec. 2, Ren’ai Rd.(intersection)",12,1
535,500216024,YouBike2.0_林口社區運動公園(公園路),47,15,林口區,20231118113914,25.07447,121.37429,公園路192號,Linkou Dist,YouBike2.0_Linkou Community Sports Park(Gongyuan Rd.),"No.192, Gongyuan Rd., Linkou Dist.",32,1
536,500216025,YouBike2.0_林口自強公園,14,5,林口區,20231118113914,25.0781,121.397,自強三街3號旁人行道,Linkou Dist,YouBike2.0_Linkou Ziqiang Park,"No.3, Ziqiang 3rd St.",9,1
537,500216026,YouBike2.0_林口國小,16,2,林口區,20231118113914,25.0805,121.389,林口路77號對面林口國小旁人行道,Linkou Dist,YouBike2.0_Linkou Elementary School,"No.77, Linkou Rd.(oppsite)",14,1
538,500216027,YouBike2.0_大崙公園,16,0,林口區,20231118113914,25.0766,121.36,南勢二街408號旁,Linkou Dist,YouBike2.0_Dalun Park,"No.408, Nanshi 2nd St., Linkou Dist.",16,1
539,500216028,YouBike2.0_林口區公所,13,10,林口區,20231118113914,25.07674,121.38818,仁愛路一段378號,Linkou Dist,YouBike2.0_Linkou District Office,"No.378, Sec. 1, Ren’ai Rd.",3,1
540,500216029,YouBike2.0_崇林國中,7,2,林口區,20231118113914,25.06754,121.37134,麗園路121號西側,Linkou Dist,YouBike2.0_Chunglin Junior High School,"No.121, Liyuan Rd., Linkou Dist.(West)",5,1
541,500216030,YouBike2.0_林口吉祥公園,29,0,林口區,20231118113914,25.08027,121.37576,文化三路二段50號(旁公園),Linkou Dist,YouBike2.0_Linkou Jixiang Park,"No.50 Section 2, Wenhua 3rd Rd.",29,0
542,500216031,YouBike2.0_麗林公有市場,12,8,林口區,20231118113914,25.06912,121.36776,公園路59號,Linkou Dist,YouBike2.0_LiLin Market,"No.59, Gongyuan Rd.",4,1
543,500216032,YouBike2.0_中山佳林路口,21,10,林口區,20231118113914,25.07923,121.38527,佳林路/中山路口(東南側),Linkou Dist,YouBike2.0_Zhongshan Jialin Rd. Intersection,Jialin Rd. & Zhongshan Rd.(Southeast),11,1
544,500216033,YouBike2.0_林口婦幼公園,12,5,林口區,20231118113914,25.07231,121.37752,文化一路一段146號,Linkou Dist,YouBike2.0_Linkou Maternity and Child Park,"No. 146, Sec. 1, Wenhua 1st Rd., Linkou Dist.",7,1
545,500216034,YouBike2.0_足夢運動公園,15,9,林口區,20231118113914,25.07562,121.39643,仁愛路一段/粉寮路一段(南側),Linkou Dist,YouBike2.0_Zumeng Sport Park,"Sec. 1, Ren'ai Rd. & Sec. 1, Fenliao Rd. (South)",6,1
546,500216035,YouBike2.0_興林路151巷口,15,0,林口區,20231118113914,25.073449376722625,121.38917325443384,興林路151巷2號(對面),Linkou Dist,"YouBike2.0_Ln. 151, Xinglin Rd. Intersection","No. 2, Ln. 151, Xinglin Rd.(Opposite)",15,1
547,500216036,YouBike2.0_四維文化一路口,16,6,林口區,20231118113914,25.07664,121.37982,文化一路一段237號(旁),Linkou Dist,YouBike2.0_Siwei Wenhua 1st Rd. Intersection,"No. 237, Sec. 1, Wenhua 1st. Rd.",10,1
548,500216037,YouBike2.0_林口仁愛公共托育中心,18,5,林口區,20231118113914,25.07209,121.37412,文化一路一段137號(對面),Linkou Dist,YouBike2.0_Ren'ai Infant Day Care Center,"No. 137, Sec. 1, Wenhua 1st. Rd.(Opposite)",13,1
